PFCNTR,DMA_CODE,DMA_DESC,OPEN_BRANDS_DESC,OPERTNL_STAT_CODE,LEGAL_ENTITY_NAME,CITY_NAME,STATE_CODE,CNTY_NAME,ZIP_CODE,CNTRY,Latitude,Longitude
300100,560,"Raleigh/Durham, NC",,Permanent Close,RobertoS Br Shop,Newton,NC,Catawba,28658,USA,35.960537,-77.820509
300176,532,"Albany-Schenectady-Troy, NY",DD,Open,"DES, Inc.",Clifton Park,NY,Saratoga,12065,USA,42.871739,-73.774136
300178,506,"E. Mass/Southern, NH",DD,Open,Ventura Baking Corp.,Danvers,MA,Essex,1923,USA,,-70.931239
300179,506,"E. Mass/Southern, NH",DD,Open,"Braga Donuts Six, Inc.",Rockport,MA,ESSEX,1966,USA,42.656344,-70.626211
300202,501,"Metro, NY",BR/DD,Open,DJ Holbrook Inc. >,Holbrook,NY,Suffolk,11741,USA,40.806919,-73.07295
300204,501,"Metro, NY",DD,Open,"D. L. & R. Donuts, Inc.",East Orange,NJ,Essex,7018,USA,40.752378,-74.207983
300205,506,"E. Mass/Southern, NH",DD,Open,"NORTH CANTON DONUTS, INC.",Canton,MA,NORFOLK,2021,USA,42.139105,-71.148928
300208,506,"E. Mass/Southern, NH",DD,Open,"Montello Donuts, Inc.",Brockton,MA,Plymouth,2301,USA,42.084421,-71.017414
300210,506,"E. Mass/Southern, NH",DD,Open,"Landing Donuts, LLC",Weymouth,MA,Norfolk,2188,USA,42.218711,-70.967392
300212,506,"E. Mass/Southern, NH",DD,Open,"Leones Donut Shop, Inc.",Somerville,MA,MIDDLESEX,2145,USA,42.393243,-71.083429
300215,506,"E. Mass/Southern, NH",DD,Open,"BROADWAY COFFEE, LLC",Saugus,MA,Essex,1906,USA,42.483084,-71.020118
300221,504,"Philadelphia, PA",DD,Temporary Close,RP DOUGH 1 INC,Philadelphia,PA,Philadelphia,19102,USA,39.953181,-75.164679
300223,506,"E. Mass/Southern, NH",DD,Open,"Mass Ave. Donuts, LLC",Cambridge,MA,Middlesex,2139,USA,42.364984,-71.103405
300230,504,"Philadelphia, PA",DD,Open,"Kunal Enterprises, LLC",Philadelphia,PA,PHILADELPHIA,19146,USA,39.938239,-75.198408
300231,506,"E. Mass/Southern, NH",DD,Open,"South Main Donuts, Inc.",Concord,NH,Merrimack,3301,USA,43.197972,-71.530842
300232,506,"E. Mass/Southern, NH",DD,Open,"S & C Donuts, Inc.",Newton,MA,MIDDLESEX,2458,USA,42.360222,-71.202397
300236,506,"E. Mass/Southern, NH",DD,Open,"Holie Donut III, Inc.",Chelsea,MA,Suffolk,2150,USA,42.395836,-71.052328
300240,506,"E. Mass/Southern, NH",DD,Open,"RMG Donuts, LLC",East Boston,MA,SUFFOLK,2128,USA,42.369062,-71.039333
300241,501,"Metro, NY",DD,Open,FAC 260 Hals LLC,Harrison,NY,Westchester,10528,USA,40.968672,-73.713642
300243,548,"W. Palm Bch/Ft. Pierce, FL",DD,Open,"SOUTHEAST ENTERPRISE HOLDINGS, LLC",Lake Park,FL,Palm Beach,33403,USA,26.794429,-80.054492
300244,521,"Providence, RI",DD,Open,"Calf Donuts, Inc.",Providence,RI,PROVIDENCE,2904,USA,41.854031,-71.400507
300245,521,"Providence, RI",DD,Open,"Torus I, Inc.",Cranston,RI,PROVIDENCE,2910,USA,41.781744,-71.440185
300247,521,"Providence, RI",DD,Open,"Woonsocket Donuts, Inc.",Woonsocket,RI,PROVIDENCE,2895,USA,42.004717,-71.498142
300248,557,"Knoxville, TN",DD,Permanent Close,"Bluemont Group, LLC",Knoxville,TN,Knox,37923,USA,35.923589,-84.094769
300250,506,"E. Mass/Southern, NH",DD,Permanent Close,"Park Avenue Donuts, Inc.",Worcester,MA,WORCESTER,1605,USA,42.247836,-71.833644
300252,506,"E. Mass/Southern, NH",DD,Open,"Epstein Porter I, LLC",Cambridge,MA,MIDDLESEX,2140,USA,42.3892,-71.119597
300254,506,"E. Mass/Southern, NH",DD,Open,"Broad Street Donuts, LLC",Nashua,NH,Hillsborough,3060,USA,42.770011,-71.491821
300255,506,"E. Mass/Southern, NH",DD,Open,"Quincy Donuts, Inc.",Quincy,MA,NORFOLK,2169,USA,42.252772,-70.993044
300258,506,"E. Mass/Southern, NH",DD,Open,"Blake & Trombley, Inc.",Winchendon,MA,WORCESTER,1475,USA,42.681106,-72.048297
300259,506,"E. Mass/Southern, NH",DD,Open,"Newton Donuts, Inc.",Newton,MA,Middlesex,2461,USA,42.319078,-71.209992
300260,548,"W. Palm Bch/Ft. Pierce, FL",DD,Open,"PAFB DD Foods, LLC",Juno Beach,FL,Palm Beach,33408,USA,26.882031,-80.059275
300261,533,"Hartford-New Haven, CT",DD,Open,"J.B. Donuts, Inc.",New Haven,CT,New Haven,6515,USA,41.331862,-72.974466
300263,533,"Hartford-New Haven, CT",DD,Permanent Close,"New Meriden Donuts, Inc.",Meriden,CT,NEW HAVEN,6451,USA,41.538017,-72.807372
300264,521,"Providence, RI",DD,Open,"Rockdale Donuts, Inc.",New Bedford,MA,BRISTOL,2740,USA,41.613661,-70.931381
300268,537,"Bangor, ME",DD,Open,"DMCP Group, LLC",Bangor,ME,Penobscot,4401,USA,44.794766,-68.774891
300269,506,"E. Mass/Southern, NH",DD,Open,"Newport Donuts, Inc.",Dover,NH,Strafford,3820,USA,43.199631,-70.875508
300270,521,"Providence, RI",DD,Open,"A & A DONUTS, INCORPORATED",Warwick,RI,Kent,2888,USA,41.7355,-71.434767
300277,506,"E. Mass/Southern, NH",DD,Open,"Natalia Donuts, Inc.",Woburn,MA,Middlesex,1801,USA,42.467311,-71.178194
300279,506,"E. Mass/Southern, NH",DD,Open,"Laconia Donuts, Inc.",Laconia,NH,BELKNAP,3246,USA,43.524011,-71.467402
300283,533,"Hartford-New Haven, CT",DD,Open,"Spiro Donuts, LLC",Hamden,CT,New Haven,6514,USA,41.363606,-72.923389
300284,533,"Hartford-New Haven, CT",DD,Open,"B & C Donuts, Inc.",Milford,CT,New Haven,6460,USA,41.239047,-73.035461
300286,521,"Providence, RI",DD,Open,"Taunton Ave. Donuts, Inc.",East Providence,RI,Providence,2914,USA,41.819544,-71.370906
300287,521,"Providence, RI",DD,Open,"AM Donuts, Inc.",Central Falls,RI,PROVIDENCE,2863,USA,41.886889,-71.387503
300289,533,"Hartford-New Haven, CT",DD,Open,"M.C.R. Donuts, Inc.",Naugatuck,CT,New Haven,6770,USA,41.46869,-73.023725
300292,533,"Hartford-New Haven, CT",DD,Open,"Couto Donuts, Inc.",Groton,CT,NEW LONDON,6340,USA,41.371905,-72.072075
300296,521,"Providence, RI",DD,Open,"MEREDITH DONUTS, LLC",Providence,RI,PROVIDENCE,2907,USA,41.814556,-71.421205
300297,521,"Providence, RI",DD,Open,"Newport Ave. Donuts, Inc.",Pawtucket,RI,Providence,2861,USA,41.861169,-71.354269
300298,521,"Providence, RI",DD,Open,"D.B. Donuts, Incorporated",Warwick,RI,Kent,2886,USA,41.719064,-71.485739
300299,504,"Philadelphia, PA",DD,Open,Northeast Donut Shops Management Corporation,Roslyn,PA,Montgomery,19001,USA,40.117642,-75.136169
300301,506,"E. Mass/Southern, NH",DD,Open,"Lynn Donuts, Inc.",Lynn,MA,Essex,1901,USA,42.458022,-70.949712
300303,521,"Providence, RI",DD,Temporary Close,"Proinova, LLC",Raynham,MA,Bristol,2767,USA,41.90635,-71.050114
300304,506,"E. Mass/Southern, NH",DD,Permanent Close,"Dedham Donuts, Inc.",Dedham,MA,Norfolk,2026,USA,42.250106,-71.171922
300305,506,"E. Mass/Southern, NH",DD,Open,"B & R Donuts, Inc.",Brighton,MA,Suffolk,2135,USA,42.356017,-71.149212
300309,521,"Providence, RI",DD,Open,"DARTMOUTH MANAGEMENT GROUP, LLC",Fall River,MA,Bristol,2720,USA,41.700262,-71.145276
300312,533,"Hartford-New Haven, CT",DD,Open,"Great American Donut, Inc.",Hartford,CT,Hartford,6114,USA,41.738017,-72.667604
300314,506,"E. Mass/Southern, NH",DD,Open,"Harold Crockett Company, Inc.",Dorchester,MA,SUFFOLK,2122,USA,42.293589,-71.048325
300315,521,"Providence, RI",DD,Permanent Close,"Daly Grind, LLC",New Bedford,MA,Bristol,2740,USA,41.626708,-70.920297
300316,506,"E. Mass/Southern, NH",DD,Open,"A C Donuts, Inc.",Lynn,MA,ESSEX,1905,USA,42.460386,-70.968428
300319,521,"Providence, RI",DD,Open,"Millenium Grind, LLC",New Bedford,MA,Bristol,2746,USA,41.662764,-70.942553
300322,501,"Metro, NY",DD,Permanent Close,"Sicomac Partners-Nanuet, Inc.",Nanuet,NY,Rockland,10954,USA,41.101692,-74.025781
300323,506,"E. Mass/Southern, NH",DD,Open,"Grade, Inc.",Beverly,MA,ESSEX,1915,USA,42.559136,-70.88225
300325,506,"E. Mass/Southern, NH",DD,Open,"J & L DONUTS, INC.",Peabody,MA,ESSEX,1960,USA,42.526892,-70.926889
300326,506,"E. Mass/Southern, NH",DD,Permanent Close,"South Broadway Donuts, LLC",Lawrence,MA,ESSEX,1843,USA,42.698622,-71.163703
300330,521,"Providence, RI",DD,Open,"Aquidneck Donuts, Inc.",Middletown,RI,Newport,2842,USA,41.52475,-71.297533
300331,506,"E. Mass/Southern, NH",DD,Permanent Close,"Cape Cod Enterprises, LLC",Hyannis,MA,Barnstable,2601,USA,41.648622,-70.291044
300335,501,"Metro, NY",DD,Open,ABDD V LLC,Fair Lawn,NJ,BERGEN,7410,USA,40.924333,-74.103636
300338,506,"E. Mass/Southern, NH",DD,Open,"Shrewsbury Donuts, Inc.",Shrewsbury,MA,Worcester,1545,USA,42.274612,-71.750028
300339,533,"Hartford-New Haven, CT",DD,Open,"Jacks Family Donuts, Inc.",Southington,CT,Hartford,6489,USA,41.610986,-72.875903
300340,533,"Hartford-New Haven, CT",DD,Temporary Close,"1084 Main Street Donuts, LLC",East Hartford,CT,Hartford,6108,USA,41.772464,-72.641714
300341,533,"Hartford-New Haven, CT",DD,Open,"Premier Food Services, LLC",Torrington,CT,LITCHFIELD,6790,USA,41.828055,-73.110093
300342,501,"Metro, NY",DD,Open,"Fairfield Donuts, Inc.",Fairfield,CT,FAIRFIELD,6824,USA,41.148506,-73.245258
300343,533,"Hartford-New Haven, CT",DD,Open,"CRRM Branford Donuts, Inc.",Branford,CT,NEW HAVEN,6405,USA,41.286369,-72.817094
300344,533,"Hartford-New Haven, CT",DD,Open,"Waterbury Donuts, Inc.",Waterbury,CT,New Haven,6702,USA,41.561778,-73.054078
300345,533,"Hartford-New Haven, CT",DD,Open,"West Haven Donuts, Inc.",West Haven,CT,NEW HAVEN,6516,USA,41.296328,-72.951217
300348,501,"Metro, NY",DD,Open,Stratford Donut Corp.,Stratford,CT,FAIRFIELD,6497,USA,41.199067,-73.129694
300353,506,"E. Mass/Southern, NH",DD,Open,"Drews Donuts, Inc.",Salem,MA,ESSEX,1970,USA,42.520343,-70.895585
300354,511,"Washington, DC",DD,Open,"LUIS GROUP, LLC",Wheaton,MD,Montgomery,20902,USA,39.0388,-77.05127
300359,501,"Metro, NY",BR/DD,Open,"IAT City Line, Inc.",Brooklyn,NY,Kings,11208,USA,40.679139,-73.864704
300361,523,"Burlington, VT-Plattsburgh, NY",DD,Open,"VERMONT DONUT ENTERPRISES V, LLC",Swanton,VT,Franklin,5488,USA,44.921323,-73.112207
300364,602,"Chicago, IL",DD,Open,"CHEHAR, CORP.",Aurora,IL,KANE,60505,USA,41.752041,-88.293985
300365,532,"Albany-Schenectady-Troy, NY",DD,Open,"Cristina Donuts, Inc.",Albany,NY,Albany,12210,USA,42.665352,-73.790543
300368,506,"E. Mass/Southern, NH",DD,Open,"Framingham Donuts, Inc.",Framingham,MA,Middlesex,1701,USA,42.282417,-71.414966
300372,504,"Philadelphia, PA",DD,Open,Sita Ram Inc,West Berlin,NJ,CAMDEN,8091,USA,39.807434,-74.930766
300374,504,"Philadelphia, PA",DD,Open,"PC AND N #16, LLC",Trenton,NJ,Mercer,8608,USA,40.219663,-74.761005
300380,523,"Burlington, VT-Plattsburgh, NY",DD,Open,"Donuts Of Rutland, Inc.",Rutland,VT,RUTLAND,5701,USA,43.598753,-72.969878
300381,512,"Baltimore, MD",DD,Open,"SGS, LLC",Timonium,MD,BALTIMORE,21093,USA,39.436392,-76.624164
300390,504,"Philadelphia, PA",DD,Open,Poonam Donut Corp.,Levittown,PA,Bucks,19056,USA,40.131944,-74.88415
300391,501,"Metro, NY",DD,Open,Corlies Avenue Donuts LLC,Neptune,NJ,Monmouth,7753,USA,40.209157,-74.027183
300392,501,"Metro, NY",BR/DD,Open,"Ganpati Donuts, Inc.",Newburgh,NY,ORANGE,12550,USA,41.502372,-74.039397
300396,501,"Metro, NY",BR/DD,Open,"D. P. T. Enterprises, Inc.",Cos Cob,CT,FAIRFIELD,6807,USA,41.039322,-73.596356
300397,512,"Baltimore, MD",BR/DD,Open,"MD Harbor, LLC",Baltimore,MD,Baltimore,21214,USA,39.350983,-76.562191
300398,555,"Syracuse, NY",DD,Open,"Oswego Foodservice Group, LLC",Fulton,NY,OSWEGO,13069,USA,43.317575,-76.412344
300399,501,"Metro, NY",DD,Open,"QSR CEDAR GROVE, LLC",Cedar Grove,NJ,Essex,7009,USA,40.846063,-74.228653
300400,566,"Lancaster/Harrisburg/York, PA",DD,Open,"Kings Point Ventures, LLC",Harrisburg,PA,Dauphin,17109,USA,40.293736,-76.827653
300403,523,"Burlington, VT-Plattsburgh, NY",DD,Open,"Vermont Donut Enterprises, LLC",Burlington,VT,CHITTENDEN,5401,USA,44.459844,-73.207892
300407,500,"Portland, ME",DD,Permanent Close,"Portland Donuts, Inc.",Portland,ME,Cumberland,4102,USA,43.654724,-70.280009
300411,512,"Baltimore, MD",DD,Open,"Anand, Inc.",Baltimore,MD,Baltimore,21244,USA,39.352756,-76.756103
300415,602,"Chicago, IL",BR/DD,Open,"Indianapolis Donut, Inc.",Whiting,IN,LAKE,46394,USA,41.685469,-87.505186
300417,506,"E. Mass/Southern, NH",DD,Open,"Omega Foods, Inc.",Boston,MA,Suffolk,2116,USA,42.349561,-71.079929
300420,506,"E. Mass/Southern, NH",DD,Open,"MANCO, LLC",Manchester,NH,HILLSBOROUGH,3104,USA,43.007458,-71.457461
300424,504,"Philadelphia, PA",DD,Open,Shivkanta Corporation,Reading,PA,BERKS,19605,USA,40.364253,-75.926724
300425,506,"E. Mass/Southern, NH",DD,Open,"Keene Donuts, Inc.",Keene,NH,Cheshire,3431,USA,42.932606,-72.285729
300428,501,"Metro, NY",DD,Open,"ST. GEORGE DONUTS, INC.",Avenel,NJ,Middlesex,7001,USA,40.585301,-74.292748
300433,504,"Philadelphia, PA",DD,Open,AARK INVESTMENTS LLC,Wilmington,DE,New Castle,19804,USA,39.731242,-75.58215
300446,752,"Colorado Springs, CO",DD,Open,"JB Partners CS & Colorado Ave, LLC",Colorado Springs,CO,El Paso,80905,USA,38.834483,-104.839339
300448,501,"Metro, NY",DD,Open,"Old Danbury Donuts, Inc.",Danbury,CT,Fairfield,6810,USA,41.397723,-73.451265
300450,504,"Philadelphia, PA",DD,Open,"Bansari Enterprises, Inc.",Brookhaven,PA,DELAWARE,19015,USA,39.866897,-75.376269
300451,501,"Metro, NY",BR/DD,Open,GARD of Union Inc.,Union,NJ,Union,7083,USA,40.704356,-74.293864
300452,532,"Albany-Schenectady-Troy, NY",DD,Open,"M.A.L. Donut Venture Of Saratoga, Ltd.",Saratoga Springs,NY,Saratoga,12866,USA,43.074622,-73.787551
300455,533,"Hartford-New Haven, CT",DD,Open,"GS Donuts, LLC",New Haven,CT,New Haven,6510,USA,41.305365,-72.926059
300459,501,"Metro, NY",DD,Open,"1209 Main Avenue, Inc.",Clifton,NJ,Passaic,7011,USA,40.876836,-74.141653
300460,501,"Metro, NY",DD,Open,"Valley Stream Donuts, Inc.",Valley Stream,NY,Nassau,11581,USA,40.658311,-73.695194
300461,501,"Metro, NY",DD,Open,Metro Franchising Commissary LLC,Queens Village,NY,QUEENS,11427,USA,40.72989,-73.74523
300462,501,"Metro, NY",BR/DD,Open,OM Shree Hanuman LLC,Flushing,NY,Queens,11354,USA,40.76537,-73.81981
300465,501,"Metro, NY",BR/DD,Open,Jericho Donuts LLC,Commack,NY,Suffolk,11725,USA,40.844806,-73.276264
300467,501,"Metro, NY",BR/DD,Open,A.W. Roslyn Food LLC,Roslyn,NY,Nassau,11576,USA,40.79891,-73.66323
300469,571,"Fort Myers, FL",DD,Open,"SSC300469, LLC",Cape Coral,FL,Lee,33904,USA,26.562314,-81.953994
300470,752,"Colorado Springs, CO",DD,Open,"JB Partners CS & Delmonico Drive, LLC",Colorado Springs,CO,El Paso,80919,USA,38.927775,-104.830766
300471,532,"Albany-Schenectady-Troy, NY",DD,Open,Westside Albany New Day Ventures LLC,Albany,NY,Albany,12205,USA,42.685554,-73.796909
300476,502,"Binghamton, NY",DD,Open,"Sonraj, Inc.",Vestal,NY,BROOME,13850,USA,42.0948,-76.00445
300477,533,"Hartford-New Haven, CT",DD,Open,"Great American Donut, Inc.",West Hartford,CT,Hartford,6110,USA,41.743101,-72.716136
300478,532,"Albany-Schenectady-Troy, NY",DD,Open,"Schenectady Donuts, Inc.",Schenectady,NY,SCHENECTADY,12304,USA,42.799064,-73.9256
300479,565,"Elmira, NY",DD,Open,Gopalanand Swamibapa Corporation,Elmira,NY,CHEMUNG,14901,USA,42.092446,-76.800161
300480,538,"Rochester, NY",DD,Open,BAJRANGI RIDGE DONUTS LLC,Rochester,NY,Monroe,14621,USA,43.194472,-77.610856
300481,504,"Philadelphia, PA",DD,Open,PC And N Corp. #4,Trenton,NJ,Mercer,8610,USA,40.190272,-74.710872
300485,501,"Metro, NY",DD,Open,"Men At Work, LLC",Larchmont,NY,WESTCHESTER,10538,USA,40.936103,-73.746717
300487,501,"Metro, NY",BR/DD,Open,GARD of Kenilworth Inc.,Kenilworth,NJ,UNION,7033,USA,40.677136,-74.286147
300493,501,"Metro, NY",BR/DD,Open,Sikand 380 Limited Liability Company,Lodi,NJ,Bergen,7644,USA,40.887057,-74.064723
300495,512,"Baltimore, MD",DD,Temporary Close,"Union Enterprises, Inc.",Baltimore,MD,BALTIMORE,21222,USA,39.267403,-76.497646
300496,504,"Philadelphia, PA",DD,Open,"Brite Enterprises, LLC",Philadelphia,PA,Philadelphia,19142,USA,39.923594,-75.245158
300497,506,"E. Mass/Southern, NH",DD,Open,"Braga Donuts, Inc.",Gloucester,MA,ESSEX,1930,USA,42.613174,-70.660418
300498,506,"E. Mass/Southern, NH",DD,Open,"Watertown Donuts, Inc.",Watertown,MA,MIDDLESEX,2472,USA,42.366275,-71.181797
300501,504,"Philadelphia, PA",DD,Open,"Shreeji Donuts, Inc.",Wilmington,DE,New Castle,19809,USA,39.770023,-75.501981
300503,532,"Albany-Schenectady-Troy, NY",DD,Open,First Donuts L.L.C.,Pittsfield,MA,Berkshire,1201,USA,42.448561,-73.250869
300506,504,"Philadelphia, PA",DD,Open,"AARK KIRKWOOD, LLC",Wilmington,DE,New Castle,19808,USA,39.721101,-75.663186
300507,543,"Springfield, MA",DD,Open,"Memorial Donuts, Inc.",Chicopee,MA,Hampden,1020,USA,42.179797,-72.578114
300511,521,"Providence, RI",DD,Open,"MSA DONUTS, LLC",Pawtucket,RI,PROVIDENCE,2860,USA,41.870933,-71.413525
300512,533,"Hartford-New Haven, CT",DD,Open,"Whethersfield Donuts, Inc.",Wethersfield,CT,HARTFORD,6109,USA,41.721033,-72.667883
300518,501,"Metro, NY",DD,Open,"Oom, Inc.",Rockaway,NJ,Morris,7866,USA,40.887594,-74.527872
300521,504,"Philadelphia, PA",DD,Open,"Shivgauri, LLC",Allentown,PA,Lehigh,18102,USA,40.607687,-75.491725
300533,543,"Springfield, MA",DD,Open,"Villa Franca Donuts, Inc.",Westfield,MA,HAMPDEN,1085,USA,42.1188,-72.743731
300535,521,"Providence, RI",DD,Open,"Atwood Donuts, LLC",Johnston,RI,Providence,2919,USA,41.823292,-71.498639
300537,602,"Chicago, IL",DD,Open,"Lincoln & California Donuts, Inc.",Chicago,IL,Cook,60659,USA,41.985629,-87.69909
300539,506,"E. Mass/Southern, NH",DD,Permanent Close,"Nashoba Valley Donuts, LLC",Leominster,MA,Worcester,1453,USA,42.523691,-71.758676
300542,602,"Chicago, IL",DD,Open,"CHICAGO WILSON DONUTS, INC.",Chicago,IL,Cook,60640,USA,41.965019,-87.656758
300547,521,"Providence, RI",DD,Open,"E.P. Donuts, Inc.",East Providence,RI,Providence,2914,USA,41.810856,-71.359217
300548,602,"Chicago, IL",DD,Open,RMN Corp.,Chicago,IL,COOK,60660,USA,41.990792,-87.679194
300551,504,"Philadelphia, PA",DD,Open,"Hongs Enterprises, Inc.",Philadelphia,PA,Philadelphia,19135,USA,40.030932,-75.054527
300552,504,"Philadelphia, PA",DD,Open,"OHM Havertown, LLC",Havertown,PA,Delaware,19083,USA,39.9719,-75.31117
300553,512,"Baltimore, MD",BR/DD,Open,"Nanduba, Inc.",Catonsville,MD,BALTIMORE,21228,USA,39.273088,-76.728024
300557,504,"Philadelphia, PA",DD,Open,Nilkanth Donut Corp.,Oaklyn,NJ,Camden,8107,USA,39.901656,-75.077019
300558,533,"Hartford-New Haven, CT",DD,Permanent Close,"Liberty Donuts, Inc.",Old Saybrook,CT,MIDDLESEX,6475,USA,41.294736,-72.379742
300561,602,"Chicago, IL",BR/DD,Open,"Unique Group, Inc.",Berwyn,IL,COOK,60402,USA,41.850462,-87.788667
300562,602,"Chicago, IL",DD,Open,SURAMBALA CORP.,Chicago,IL,COOK,60638,USA,41.792337,-87.790757
300565,506,"E. Mass/Southern, NH",DD,Permanent Close,"J & O Donuts, Inc.",Webster,MA,WORCESTER,1570,USA,42.048924,-71.884423
300566,602,"Chicago, IL",BR/DD,Open,"Royal Food, Inc.",Chicago,IL,Cook,60640,USA,41.968722,-87.672958
300567,602,"Chicago, IL",BR/DD,Open,Hanuman Inc.,Des Plaines,IL,COOK,60016,USA,42.035964,-87.941072
300569,505,"Detroit, MI",BR/DD,Open,Manikrupa Corporation,Westland,MI,Wayne,48185,USA,42.324328,-83.379703
300570,501,"Metro, NY",DD,Open,"Main Coffee House, LLC",Bridgeport,CT,Fairfield,6606,USA,41.216977,-73.213975
300571,506,"E. Mass/Southern, NH",DD,Open,C.M.B. Medeiros Inc.,Malden,MA,MIDDLESEX,2148,USA,42.42395,-71.065447
300572,506,"E. Mass/Southern, NH",DD,Open,"SOMERVILLE DONUTS, LLC",Somerville,MA,MIDDLESEX,2143,USA,42.378901,-71.093988
300573,521,"Providence, RI",DD,Open,Hoxsie Four Corporation,Warwick,RI,Kent,2889,USA,41.733353,-71.406417
300574,504,"Philadelphia, PA",DD,Open,"JSG, Inc.",Brooklawn,NJ,CAMDEN,8030,USA,39.877309,-75.11233
300575,504,"Philadelphia, PA",DD,Open,"Sai Chaya, Inc.",Trenton,NJ,MERCER,8611,USA,40.198575,-74.752522
300577,524,"Atlanta, GA",DD,Open,"6060 Roswell Donuts Holdings, LLC",Sandy Springs,GA,Fulton,30328,USA,33.920194,-84.379311
300580,521,"Providence, RI",DD,Open,"GNT, LLC",East Freetown,MA,Bristol,2717,USA,41.770831,-70.956228
300581,504,"Philadelphia, PA",DD,Open,"Tripura, Inc.",Springfield,PA,DELAWARE,19064,USA,39.923568,-75.314436
300583,532,"Albany-Schenectady-Troy, NY",DD,Open,"Colonie Donuts II, Inc",Latham,NY,Albany,12110,USA,42.736224,-73.761719
300584,506,"E. Mass/Southern, NH",DD,Open,"Adie-Conway, Inc.",Chelmsford,MA,MIDDLESEX,1824,USA,42.603014,-71.345625
300589,501,"Metro, NY",DD,Open,"TRM Group, Inc.",South Plainfield,NJ,Middlesex,7080,USA,40.595714,-74.400156
300590,506,"E. Mass/Southern, NH",DD,Open,"JSC Donuts, Inc.",Nashua,NH,Hillsborough,3060,USA,42.764232,-71.466029
300591,506,"E. Mass/Southern, NH",DD,Open,"J.M.B. Donuts, Inc.",Manchester,NH,HILLSBOROUGH,3101,USA,42.980822,-71.463603
300593,602,"Chicago, IL",DD,Open,O M Namah Inc.,Brookfield,IL,COOK,60513,USA,41.817137,-87.851582
300594,532,"Albany-Schenectady-Troy, NY",DD,Permanent Close,Westside Albany Meredith Ventures LLC,Albany,NY,ALBANY,12203,USA,42.677847,-73.829086
300595,512,"Baltimore, MD",BR/DD,Open,Rupani Corporation,Glen Burnie,MD,ANNE ARUNDEL,21061,USA,39.17765,-76.616569
300604,501,"Metro, NY",DD,Open,ABDD V LLC,Ramsey,NJ,Bergen,7446,USA,41.062661,-74.125917
300605,617,"Milwaukee, WI",DD,Open,Shree Layton LLC,Milwaukee,WI,Milwaukee,53207,USA,42.958792,-87.911708
300606,602,"Chicago, IL",BR/DD,Open,Royal Corporation,Berwyn,IL,Cook,60402,USA,41.825158,-87.798336
300611,521,"Providence, RI",DD,Open,"Rich Donuts, Inc.",Richmond,RI,Washington,2898,USA,41.511253,-71.686128
300617,512,"Baltimore, MD",DD,Open,Chhatral Corporation,Baltimore,MD,Baltimore,21230,USA,39.264162,-76.655448
300623,501,"Metro, NY",BR/DD,Open,"Erica Donuts II, Inc.",Closter,NJ,Bergen,7624,USA,40.971159,-73.959626
300624,501,"Metro, NY",DD,Open,SNEH Foods Limited Liability Company,West Long Branch,NJ,Monmouth,7764,USA,40.29845,-74.009375
300628,504,"Philadelphia, PA",DD,Open,Ekadanta LLC,Easton,PA,NORTHAMPTON,18042,USA,40.690263,-75.228379
300629,512,"Baltimore, MD",DD,Open,"Eastpoint Refreshment Co., Inc.",Baltimore,MD,Baltimore,21224,USA,39.285083,-76.540405
300630,539,"Tampa/St. Pete/Sarasota, FL",DD,Open,"Minerva, Inc.",Brandon,FL,Hillsborough,33511,USA,27.938204,-82.303633
300631,543,"Springfield, MA",DD,Open,"Lori Donuts, Inc.",Southwick,MA,Hampden,1077,USA,42.047709,-72.779963
300645,501,"Metro, NY",BR/DD,Open,SI HYLAN 2425 LLC,Staten Island,NY,RICHMOND,10306,USA,40.571971,-74.108255
300648,505,"Detroit, MI",DD,Open,"Bayyouk Classic Donuts, Inc.",Westland,MI,WAYNE,48186,USA,42.296756,-83.388088
300650,506,"E. Mass/Southern, NH",DD,Open,MORTON DONUT INC.,South Weymouth,MA,NORFOLK,2190,USA,42.180069,-70.955831
300652,504,"Philadelphia, PA",DD,Open,"Sunbeam Morrisville, Inc.",Morrisville,PA,BUCKS,19067,USA,40.208642,-74.798183
300653,505,"Detroit, MI",BR/DD,Open,OM OAK PARK DONUTS INC,Oak Park,MI,Oakland,48237,USA,42.474398,-83.20089
300658,533,"Hartford-New Haven, CT",DD,Open,"Hatzis Donuts, LLC",Waterford,CT,New London,6385,USA,41.386531,-72.159433
300660,506,"E. Mass/Southern, NH",DD,Open,"Roslindale Donuts, Inc.",Roslindale,MA,Suffolk,2131,USA,42.287906,-71.126892
300662,506,"E. Mass/Southern, NH",DD,Open,"RMG Donuts, LLC",East Boston,MA,Suffolk,2128,USA,42.385928,-71.008314
300663,543,"Springfield, MA",DD,Open,"Northampton Donuts, Inc.",Northampton,MA,Hampshire,1060,USA,42.32381,-72.633504
300665,500,"Portland, ME",DD,Permanent Close,"South Portland Donuts, LLC",South Portland,ME,Cumberland,4106,USA,43.621197,-70.304353
300666,523,"Burlington, VT-Plattsburgh, NY",DD,Permanent Close,"Quality Donuts, Inc.",Barre,VT,Washington,5641,USA,44.200163,-72.504536
300668,533,"Hartford-New Haven, CT",DD,Open,"Willimantic Donuts, Inc.",Willimantic,CT,Windham,6226,USA,41.713088,-72.218844
300669,533,"Hartford-New Haven, CT",DD,Open,"New England Donuts, LLC",Southington,CT,Hartford,6489,USA,41.640014,-72.874464
300673,506,"E. Mass/Southern, NH",DD,Open,"MANCO, LLC",Allenstown,NH,MERRIMACK,3275,USA,43.124272,-71.443085
300676,602,"Chicago, IL",BR/DD,Open,"Sarika, Inc.",Blue Island,IL,Cook,60406,USA,41.662406,-87.678625
300677,501,"Metro, NY",DD,Open,"FRJ Oceanside Donuts, Inc.",Oceanside,NY,Nassau,11572,USA,40.64078,-73.6396
300679,602,"Chicago, IL",DD,Open,"CH. Ridge, Inc.",Chicago Ridge,IL,Cook,60415,USA,41.719961,-87.780961
300682,602,"Chicago, IL",BR/DD,Open,"Karam Foods, Inc.",Chicago,IL,Cook,60613,USA,41.946852,-87.673164
300687,501,"Metro, NY",DD,Open,Shraddha Saburi LLC,Paterson,NJ,PASSAIC,7502,USA,40.915505,-74.194484
300694,506,"E. Mass/Southern, NH",DD,Open,"S & S Donuts, LLC",Revere,MA,SUFFOLK,2151,USA,42.405772,-71.015158
300697,501,"Metro, NY",BR/DD,Open,"Hempstead Donut System, LLC",Hempstead,NY,Nassau,11550,USA,40.70035,-73.61583
300698,501,"Metro, NY",DD,Open,"Port Chester Donuts, Inc.",Port Chester,NY,Westchester,10573,USA,40.994897,-73.673939
300700,602,"Chicago, IL",BR/DD,Open,Jay Chehar Corporation,Yorkville,IL,Kendall,60560,USA,41.659668,-88.441678
300702,505,"Detroit, MI",BR/DD,Open,OM SOUTHFIELD DONUTS INC,Southfield,MI,Oakland,48034,USA,42.470715,-83.280405
300705,539,"Tampa/St. Pete/Sarasota, FL",DD,Open,Albireh Donuts LLC,Sebring,FL,Highlands,33870,USA,27.468033,-81.437675
300707,505,"Detroit, MI",DD,Open,"B.V.M., Inc.",Livonia,MI,Wayne,48152,USA,42.425971,-83.335413
300710,500,"Portland, ME",DD,Open,"Deering Donuts, LLC",Portland,ME,Cumberland,4103,USA,43.670664,-70.284753
300711,500,"Portland, ME",DD,Open,Colettes Donut Shoppe,Lewiston,ME,ANDROSCOGGIN,4240,USA,44.101403,-70.213847
300712,505,"Detroit, MI",BR/DD,Open,KARDO 15 LLC,Madison Heights,MI,Oakland,48071,USA,42.504681,-83.086083
300715,602,"Chicago, IL",DD,Open,"Vrinda Donuts, Inc.",Chicago,IL,Cook,60636,USA,41.765086,-87.663431
300716,602,"Chicago, IL",DD,Open,"Karim, Inc. #2",Skokie,IL,Cook,60076,USA,42.040911,-87.725633
300717,602,"Chicago, IL",DD,Open,Jai Bajarang Inc.,Downers Grove,IL,DuPage,60515,USA,41.809714,-87.999283
300723,504,"Philadelphia, PA",DD,Open,Northeast Donut Shops Management Corporation,Philadelphia,PA,Philadelphia,19149,USA,40.034978,-75.068792
300729,602,"Chicago, IL",BR/DD,Open,"A. J. PATEL FOOD SERVICE, INC.",Chicago,IL,Cook,60659,USA,41.997537,-87.708483
300734,602,"Chicago, IL",BR/DD,Open,"CALUMET TWO, INC.",Calumet City,IL,COOK,60409,USA,41.600442,-87.541469
300737,618,"Houston, TX",DD,Open,EKTA Holdings Inc.,Bellaire,TX,HARRIS,77401,USA,29.705737,-95.474346
300740,539,"Tampa/St. Pete/Sarasota, FL",DD,Open,"Suncoast Donuts, LLC",Clearwater,FL,PINELLAS,33756,USA,27.959211,-82.787856
300744,752,"Colorado Springs, CO",DD,Open,"JB Partners CS & North Circle, LLC",Colorado Springs,CO,El Paso,80909,USA,38.836053,-104.775533
300754,789,"Tucson, AZ",BR/DD,Open,DESERT DONUTS ONE LLC,Tucson,AZ,Pima,85711,USA,32.206692,-110.878094
300762,504,"Philadelphia, PA",DD,Open,"Jay Donuts, Inc.",Wilmington,DE,New Castle,19803,USA,39.796861,-75.548011
300764,543,"Springfield, MA",DD,Open,"Greenfield Donuts, Inc.",Greenfield,MA,Franklin,1301,USA,42.585067,-72.613022
300779,501,"Metro, NY",DD,Open,"JAK-Blauvelt Donuts, Inc.",Blauvelt,NY,Rockland,10913,USA,41.062981,-73.949359
300781,501,"Metro, NY",BR/DD,Open,"Triple J. Family, Inc.",Bergenfield,NJ,Bergen,7621,USA,40.918284,-73.997069
300782,506,"E. Mass/Southern, NH",DD,Open,"Furtado Donuts, Inc.",Saugus,MA,Essex,1906,USA,42.472831,-71.036857
300784,504,"Philadelphia, PA",DD,Open,"Donut Masters, Inc.",Cherry Hill,NJ,Camden,8002,USA,39.937489,-75.036244
300785,506,"E. Mass/Southern, NH",DD,Open,"Mindas Donuts, Inc.",Plaistow,NH,ROCKINGHAM,3865,USA,42.833036,-71.056706
300786,501,"Metro, NY",DD,Open,"Middle Donuts, Inc.",Middletown,NJ,Monmouth,7748,USA,40.39315,-74.101319
300787,501,"Metro, NY",DD,Permanent Close,"Danbury Donuts, Inc.",New Fairfield,CT,Fairfield,6812,USA,41.465883,-73.482103
300789,501,"Metro, NY",DD,Open,"CORTLANDT MANOR DONUTS, LLC",Cortlandt Manor,NY,Westchester,10567,USA,41.305075,-73.879242
300791,506,"E. Mass/Southern, NH",DD,Open,The Epstein Porter II LLC,Charlestown,MA,SUFFOLK,2129,USA,42.375847,-71.065736
300793,544,"Norfolk, VA",DD,Open,"V.B. Donuts, LLC",Norfolk,VA,Norfolk,23518,USA,36.916072,-76.219758
300797,528,"Miami-FT. Lauderdale, FL",DD,Open,"SSC300797, LLC",Miami,FL,Miami-Dade,33133,USA,25.739175,-80.239514
300810,504,"Philadelphia, PA",DD,Open,Delite Inc.,Norwood,PA,Delaware,19074,USA,39.886083,-75.301578
300812,521,"Providence, RI",DD,Open,"Themie, LLC",Tiverton,RI,NEWPORT,2878,USA,41.626222,-71.147506
300813,521,"Providence, RI",DD,Permanent Close,"Proinova, LLC",Raynham,MA,Bristol,2767,USA,41.904914,-71.011206
300820,504,"Philadelphia, PA",DD,Open,"Crilly, Inc.",Dover,DE,KENT,19901,USA,39.168153,-75.517492
300826,602,"Chicago, IL",DD,Open,"Karim, Inc.",Wilmette,IL,COOK,60091,USA,42.079163,-87.754801
300827,506,"E. Mass/Southern, NH",DD,Open,"Coolidge Donuts, Inc.",Watertown,MA,Middlesex,2472,USA,42.371501,-71.157802
300830,504,"Philadelphia, PA",DD,Open,"Jocas, Corp.",Trevose,PA,BUCKS,19053,USA,40.122106,-74.976294
300837,555,"Syracuse, NY",DD,Permanent Close,"S Salina Street Donuts, LLC",Syracuse,NY,Onondaga,13202,USA,43.048835,-76.151999
300838,533,"Hartford-New Haven, CT",DD,Permanent Close,"Waterbury Donuts, Inc.",Waterbury,CT,NEW HAVEN,6704,USA,41.586183,-73.046992
300839,506,"E. Mass/Southern, NH",DD,Open,Melrose LLC,Melrose,MA,MIDDLESEX,2176,USA,42.452117,-71.067183
300841,512,"Baltimore, MD",DD,Open,Shriji Investors LLC,Baltimore,MD,BALTIMORE,21211,USA,39.337662,-76.634617
300848,501,"Metro, NY",DD,Open,"W.B. Donuts, Inc.",Brewster,NY,PUTNAM,10509,USA,41.426012,-73.578179
300849,501,"Metro, NY",DD,Open,DONUT KITCHEN LLC,Stamford,CT,FAIRFIELD,6902,USA,41.048264,-73.554819
300852,523,"Burlington, VT-Plattsburgh, NY",DD,Open,"C.N. Donuts, LLC",Lyndonville,VT,Caledonia,5851,USA,44.526683,-72.000644
300866,512,"Baltimore, MD",DD,Permanent Close,"RAJ & KK, L.L.C.",Reisterstown,MD,BALTIMORE,21136,USA,39.445744,-76.813047
300867,534,"Orlando/Daytona/Melbourne, FL",DD,Open,"AC Pleasant St, LLC",Cocoa Beach,FL,Brevard,32931,USA,28.370694,-80.605447
300869,753,"Phoenix, AZ",DD,Open,ABDD ARIZONA LLC,Phoenix,AZ,Maricopa,85018,USA,33.480547,-111.992539
300875,533,"Hartford-New Haven, CT",DD,Open,"Watertown Donuts, Inc.",Watertown,CT,Litchfield,6795,USA,41.592792,-73.109244
300878,504,"Philadelphia, PA",DD,Open,"Krishna Treats, LLC",Croydon,PA,BUCKS,19021,USA,40.093706,-74.911555
300882,501,"Metro, NY",DD,Open,"Deck Fulton - 1309, LLC",Brooklyn,NY,Kings,11216,USA,40.680482,-73.948915
300896,501,"Metro, NY",DD,Open,"JAVA JOINT NP, LLC",North Plainfield,NJ,Somerset,7060,USA,40.623299,-74.445204
300898,504,"Philadelphia, PA",DD,Open,Sai Shakti Corporation,Philadelphia,PA,PHILADELPHIA,19147,USA,39.931436,-75.160662
300900,533,"Hartford-New Haven, CT",DD,Open,"Watertown Donuts, Inc.",Thomaston,CT,Litchfield,6787,USA,41.661678,-73.0796
300904,528,"Miami-FT. Lauderdale, FL",DD/BR,Permanent Close,"Sweetco Bakery, Inc.",Fort Lauderdale,FL,Broward,33305,USA,26.152606,-80.117908
300908,511,"Washington, DC",DD,Open,"Woodbridge Donuts, Inc.",Fort Belvoir,VA,Fairfax,22060,USA,38.695407,-77.143592
300910,602,"Chicago, IL",DD,Open,New A & N Inc.,Chicago,IL,Cook,60632,USA,41.793636,-87.723567
300912,512,"Baltimore, MD",DD,Open,"Kaival Krupa, Inc.",Towson,MD,Baltimore,21286,USA,39.396637,-76.567224
300919,501,"Metro, NY",DD,Open,Hima Inc.,North Arlington,NJ,BERGEN,7031,USA,40.788122,-74.133181
300920,501,"Metro, NY",DD,Open,"What A Donut, LLC",Linden,NJ,Union,7036,USA,40.633383,-74.258467
300921,501,"Metro, NY",DD,Open,S & P Donut Corp.,Trumbull,CT,FAIRFIELD,6611,USA,41.232183,-73.152678
300924,514,"Buffalo, NY",DD,Open,"136 West Main Street, Inc.",Batavia,NY,GENESEE,14020,USA,42.999953,-78.191044
300925,521,"Providence, RI",DD,Open,"MA Donuts I, Inc.",North Attleboro,MA,Bristol,2760,USA,41.964787,-71.339531
300928,602,"Chicago, IL",BR/DD,Open,"Worth 1, Inc.",Worth,IL,Cook,60482,USA,41.690044,-87.786689
300929,566,"Lancaster/Harrisburg/York, PA",DD,Permanent Close,Priya Corporation,York,PA,YORK,17404,USA,39.980468,-76.733923
300931,501,"Metro, NY",DD,Open,"ABDD III, LLC",Newfoundland,NJ,PASSAIC,7435,USA,41.052944,-74.453558
300933,501,"Metro, NY",DD,Open,"Kelido, Inc.",Morris Plains,NJ,Morris,7950,USA,40.84265,-74.464764
300938,602,"Chicago, IL",BR/DD,Open,Purohit Brothers Inc.,Chicago,IL,COOK,60634,USA,41.952494,-87.806269
300939,602,"Chicago, IL",DD,Open,"Unique Group, Inc.",Chicago,IL,COOK,60639,USA,41.909442,-87.784769
300940,505,"Detroit, MI",BR/DD,Open,KARDO 12 LLC,Southgate,MI,Wayne,48195,USA,42.198863,-83.206345
300944,500,"Portland, ME",DD,Permanent Close,"Cash Corner Donuts, LLC",South Portland,ME,CUMBERLAND,4106,USA,43.64365,-70.330822
300949,504,"Philadelphia, PA",DD,Open,Radha Donut Corp.,Bellmawr,NJ,CAMDEN,8031,USA,39.8641,-75.078758
300952,539,"Tampa/St. Pete/Sarasota, FL",DD,Open,PURPLE ROCK INVESTMENT COMPANY LLC,Venice,FL,Sarasota,34293,USA,27.067164,-82.419769
300953,504,"Philadelphia, PA",DD,Open,PC and N Corp. # 3,Trenton,NJ,Mercer,8619,USA,40.231002,-74.676784
300968,501,"Metro, NY",DD,Open,"Danbury Donuts, Inc.",Danbury,CT,Fairfield,6811,USA,41.388843,-73.481033
300970,501,"Metro, NY",DD,Open,"Shrewsbury Donuts, Inc.",Shrewsbury,NJ,Monmouth,7702,USA,40.337975,-74.063928
300973,533,"Hartford-New Haven, CT",DD,Open,"Vernon Donuts, Inc.",Vernon Rockville,CT,TOLLAND,6066,USA,41.829403,-72.496363
300974,543,"Springfield, MA",DD,Open,"Lori Donuts, Inc.",Springfield,MA,HAMPDEN,1129,USA,42.115156,-72.49735
300976,506,"E. Mass/Southern, NH",DD,Open,"NAS Donuts, LLC",Nashua,NH,HILLSBOROUGH,3060,USA,42.728442,-71.448101
300977,506,"E. Mass/Southern, NH",DD,Open,"Dover Donuts, Inc.",Dover,NH,STRAFFORD,3820,USA,43.218278,-70.883342
300978,650,"Oklahoma City, OK",DD,Open,Natash LLC,Oklahoma City,OK,Oklahoma,73112,USA,35.507147,-97.565356
300982,504,"Philadelphia, PA",DD,Open,"OHM Springfield, LLC",Drexel Hill,PA,Delaware,19026,USA,39.958728,-75.287608
300985,528,"Miami-FT. Lauderdale, FL",DD,Open,"SOFL DONUTS, LLC",Miami,FL,MIAMI-DADE,33169,USA,25.947167,-80.205031
300991,521,"Providence, RI",DD,Open,"Attleboro Donuts, Inc.",Attleboro,MA,BRISTOL,2703,USA,41.948807,-71.277983
300995,501,"Metro, NY",DD,Open,Koula LLC,Elizabeth,NJ,Union,7208,USA,40.670322,-74.219866
301000,602,"Chicago, IL",BR/DD,Open,"Unique Group, Inc.",Cicero,IL,Cook,60804,USA,41.858437,-87.764282
301017,534,"Orlando/Daytona/Melbourne, FL",DD,Open,"MAC ORANGE AVENUE, LLC",Orlando,FL,Orange,32806,USA,28.519233,-81.376435
301018,501,"Metro, NY",DD,Open,"Donuts Are Us, LLC",Elizabeth,NJ,Union,7202,USA,40.659302,-74.222817
301061,504,"Philadelphia, PA",DD,Open,Vicky and Bonny Coffee Express Somerdale Limited Liability C,Somerdale,NJ,CAMDEN,8083,USA,39.841794,-75.014544
301071,523,"Burlington, VT-Plattsburgh, NY",DD,Permanent Close,"VERMONT DONUT ENTERPRISES V, LLC",Saint Albans,VT,FRANKLIN,5478,USA,44.802206,-73.087853
301076,501,"Metro, NY",DD,Open,"Darien Donuts, Inc.",Norwalk,CT,Fairfield,6854,USA,41.097308,-73.444703
301081,533,"Hartford-New Haven, CT",DD,Open,SOPHIA CT LLC,New London,CT,New London,6320,USA,41.367095,-72.117435
301108,501,"Metro, NY",DD,Open,TOMS RIVER DONUTS LLC,Toms River,NJ,Ocean,8753,USA,39.963556,-74.188768
301122,602,"Chicago, IL",DD,Open,Rama Enterprises Incorporated,Naperville,IL,DuPage,60563,USA,41.787619,-88.134961
301124,602,"Chicago, IL",BR/DD,Open,"Gul Foods, Inc.",Chicago,IL,COOK,60630,USA,41.967994,-87.729644
301136,765,"El Paso, TX",DD,Open,"Sizzling Donuts, LLC",El Paso,TX,El Paso,79924,USA,31.870473,-106.427765
301171,650,"Oklahoma City, OK",DD,Open,Goli Enterprise LLC,Del City,OK,Oklahoma,73115,USA,35.449663,-97.441331
301184,501,"Metro, NY",DD,Open,"Poughkeepsie Main Cafe, LLC",Poughkeepsie,NY,Dutchess,12603,USA,41.696228,-73.90345
301212,500,"Portland, ME",DD,Open,"Lisbon Donuts, Inc.",Lewiston,ME,Androscoggin,4240,USA,44.0791,-70.19193
301213,500,"Portland, ME",DD,Permanent Close,"Saturn Associates, Inc.",Westbrook,ME,CUMBERLAND,4092,USA,43.676716,-70.361257
301216,506,"E. Mass/Southern, NH",DD,Open,"C & M Donuts, Inc.",Norwood,MA,NORFOLK,2062,USA,42.192859,-71.196407
301217,506,"E. Mass/Southern, NH",DD,Open,"Tori, LLC",Revere,MA,SUFFOLK,2151,USA,42.409563,-70.999941
301219,523,"Burlington, VT-Plattsburgh, NY",DD,Open,"C.N. Donuts, LLC",Saint Johnsbury,VT,Caledonia,5819,USA,44.417763,-72.016068
301224,521,"Providence, RI",DD,Permanent Close,"Broadway Donuts, Inc.",Newport,RI,NEWPORT,2840,USA,41.493817,-71.309097
301255,641,"San Antontio, TX",DD,Open,"Military Donuts, Inc.",San Antonio,TX,Bexar,78227,USA,29.408437,-98.629399
301269,548,"W. Palm Bch/Ft. Pierce, FL",DD,Open,"Ekonomy Foods, Inc.",Fort Pierce,FL,Saint Lucie,34950,USA,27.438356,-80.347958
301274,501,"Metro, NY",DD,Open,Gloria Donut Corp.,Nutley,NJ,ESSEX,7110,USA,40.812233,-74.145219
301282,561,"Jacksonville, FL",DD,Open,"ST. JOHNS DONUTS, LLC",Saint Augustine,FL,Saint Johns,32084,USA,29.908894,-81.319874
301286,500,"Portland, ME",DD,Open,"San-Do, Inc.",Sanford,ME,YORK,4073,USA,43.437692,-70.774575
301287,506,"E. Mass/Southern, NH",DD,Open,"New Generation Donuts, LLC",Falmouth,MA,Barnstable,2540,USA,41.552515,-70.605937
301288,501,"Metro, NY",DD,Open,333 NORTH AVENUE EAST LLC,Cranford,NJ,UNION,7016,USA,40.65802,-74.29187
301289,528,"Miami-FT. Lauderdale, FL",DD,Open,"Hollywood & 441, Inc.",Hollywood,FL,Broward,33021,USA,26.01402,-80.20779
301290,566,"Lancaster/Harrisburg/York, PA",DD,Open,"RADHA-KRISHNA, Inc.",Harrisburg,PA,Dauphin,17111,USA,40.256014,-76.839983
301291,506,"E. Mass/Southern, NH",DD,Open,"Jo-Ad Realty, LLC",Southbridge,MA,WORCESTER,1550,USA,42.076947,-72.036541
301292,506,"E. Mass/Southern, NH",DD,Open,"Roxbury Donuts, Inc.",Jamaica Plain,MA,Suffolk,2130,USA,42.310368,-71.114996
301293,561,"Jacksonville, FL",DD,Open,"Beach Boulevard Donut, Inc.",Jacksonville Beach,FL,Duval,32250,USA,30.288642,-81.404689
301299,501,"Metro, NY",DD,Open,Murani Corp.,Fords,NJ,Middlesex,8863,USA,40.528597,-74.315981
301301,692,"Beaumont/Port Arthur, TX",DD,Open,"Anju Donuts of Beaumont, LLC",Beaumont,TX,Jefferson,77708,USA,30.117885,-94.144631
301302,501,"Metro, NY",BR/DD,Open,Global Food Franchise Inc.,Wallington,NJ,BERGEN,7057,USA,40.842578,-74.104436
301304,506,"E. Mass/Southern, NH",DD,Open,"Allco Donuts, LLC",Lexington,MA,Middlesex,2421,USA,42.436069,-71.234831
301308,521,"Providence, RI",DD,Open,"GLOBE CORNERS MFG. CO., INC.",Fall River,MA,BRISTOL,2724,USA,41.687472,-71.172347
301313,501,"Metro, NY",DD,Open,"Y & C Restaurant, Inc.",Wappingers Falls,NY,DUTCHESS,12590,USA,41.597947,-73.910697
301314,532,"Albany-Schenectady-Troy, NY",DD,Open,"NORTH STAR DONUT GROUP, LLC",Queensbury,NY,WARREN,12804,USA,43.327306,-73.667997
301316,602,"Chicago, IL",BR/DD,Open,"Vishal, Inc.",Chicago,IL,Cook,60641,USA,41.953581,-87.752608
301325,506,"E. Mass/Southern, NH",DD,Permanent Close,"NORTH CANTON DONUTS, INC.",Canton,MA,NORFOLK,2021,USA,42.15261,-71.147763
301331,501,"Metro, NY",BR/DD,Open,AJP Restaurant Corp.,East Northport,NY,SUFFOLK,11731,USA,40.87175,-73.32327
301333,533,"Hartford-New Haven, CT",DD,Open,"CRRM W. Main Street Donuts, Inc.",Branford,CT,New Haven,6405,USA,41.276475,-72.836483
301341,790,"Albuquerque, NM",DD,Open,"Deubel, LLC",Santa Fe,NM,Santa Fe,87505,USA,35.675022,-105.953336
301347,528,"Miami-FT. Lauderdale, FL",DD,Open,"SOUTHEAST ENTERPRISE HOLDINGS, LLC",Hialeah,FL,Miami-Dade,33010,USA,25.823158,-80.270936
301350,692,"Beaumont/Port Arthur, TX",DD,Open,"Anju Donuts of Beaumont, LLC",Beaumont,TX,Jefferson,77702,USA,30.089865,-94.129999
301352,506,"E. Mass/Southern, NH",DD,Open,"Plain St. Donuts, Inc.",Duxbury,MA,PLYMOUTH,2332,USA,42.023841,-70.683294
301353,501,"Metro, NY",BR/DD,Open,Main Street QSR Inc.,Patchogue,NY,Suffolk,11772,USA,40.76678,-73.00158
301354,506,"E. Mass/Southern, NH",DD,Open,"Progressive Foods, Inc.",Rochester,NH,Strafford,3867,USA,43.300144,-70.971731
301355,506,"E. Mass/Southern, NH",DD,Open,"C M & R Donuts, Inc.",Lowell,MA,MIDDLESEX,1852,USA,42.631069,-71.282453
301358,602,"Chicago, IL",DD,Open,MAP CORPORATION,Norridge,IL,Cook,60706,USA,41.966663,-87.822208
301361,602,"Chicago, IL",BR/DD,Open,"Anusha International, Inc.",Arlington Heights,IL,Cook,60004,USA,42.106049,-87.970576
301365,602,"Chicago, IL",DD,Open,"Shri Krishna, Inc.",Chicago,IL,COOK,60643,USA,41.704353,-87.681302
301367,532,"Albany-Schenectady-Troy, NY",DD,Open,"North Adams Donuts, LLC",North Adams,MA,Berkshire,1247,USA,42.700831,-73.108375
301384,521,"Providence, RI",DD,Open,"J.P. Donuts, Inc.",Warren,RI,BRISTOL,2885,USA,41.731233,-71.282929
301400,533,"Hartford-New Haven, CT",DD,Open,"North Haven Donuts, Inc.",North Haven,CT,NEW HAVEN,6473,USA,41.396297,-72.854694
301401,506,"E. Mass/Southern, NH",DD,Open,"Pearl St. Donuts, Inc.",Brockton,MA,PLYMOUTH,2301,USA,42.100017,-71.066094
301404,506,"E. Mass/Southern, NH",DD,Open,"Amherst St. Donuts, Inc.",Nashua,NH,Hillsborough,3063,USA,42.778256,-71.496931
301407,506,"E. Mass/Southern, NH",DD,Open,"Port Donuts, Inc.",Portsmouth,NH,ROCKINGHAM,3801,USA,43.050676,-70.770823
301419,571,"Fort Myers, FL",DD,Open,PURPLE ROCK INVESTMENT COMPANY LLC,Englewood,FL,Charlotte,34224,USA,26.934663,-82.319178
301429,506,"E. Mass/Southern, NH",DD,Open,"Cape Cod Enterprises, LLC",Plymouth,MA,Plymouth,2360,USA,41.818333,-70.551872
301430,528,"Miami-FT. Lauderdale, FL",DD,Open,"SOUTHEAST ENTERPRISE HOLDINGS, LLC",Hialeah,FL,Miami-Dade,33013,USA,25.867653,-80.265653
301446,521,"Providence, RI",DD,Open,"Mansfield Donuts, Inc.",Mansfield,MA,BRISTOL,2048,USA,42.032842,-71.216108
301476,602,"Chicago, IL",BR/DD,Open,"Schaumburg Donuts, Inc.",Schaumburg,IL,Cook,60194,USA,42.027785,-88.059305
301479,602,"Chicago, IL",BR/DD,Open,MUNDELEIN LAKE ST COFFEE INC.,Mundelein,IL,LAKE,60060,USA,42.269369,-88.004136
301481,602,"Chicago, IL",BR/DD,Open,"183 Donuts, Inc.",Homewood,IL,Cook,60430,USA,41.557072,-87.673053
301485,588,"South Bend, IN",BR/DD,Open,"ST JOSEPH DONUTS, INC.",Saint Joseph,MI,BERRIEN,49085,USA,42.086041,-86.485309
301487,505,"Detroit, MI",BR/DD,Open,KARDO 13 LLC,Taylor,MI,Wayne,48180,USA,42.225436,-83.268553
301495,506,"E. Mass/Southern, NH",DD,Open,"D.D.J., Inc.",Oxford,MA,WORCESTER,1540,USA,42.116669,-71.861972
301497,602,"Chicago, IL",DD,Temporary Close,SEVA Companies LLC Thompson Food Center,Chicago,IL,COOK,60601,USA,41.88501,-87.631661
301525,549,"Watertown, NY",DD,Open,"Watertown Foodservice Group, LLC",Watertown,NY,Jefferson,13601,USA,43.976354,-75.944855
301527,528,"Miami-FT. Lauderdale, FL",DD,Open,"SOFL DONUTS, LLC",Miramar,FL,Broward,33023,USA,25.984381,-80.210469
301530,504,"Philadelphia, PA",DD,Open,"United Food Systems, Inc.",Philadelphia,PA,Philadelphia,19149,USA,40.038708,-75.077846
301533,504,"Philadelphia, PA",DD,Open,Ghanshyam Donut Corp.,Glassboro,NJ,Gloucester,8028,USA,39.717592,-75.112961
301538,506,"E. Mass/Southern, NH",DD,Open,NOR-Op LLC,Northborough,MA,WORCESTER,1532,USA,42.319875,-71.647244
301551,539,"Tampa/St. Pete/Sarasota, FL",DD,Open,LEGACY PORT RICHEY QSR LLC,New Port Richey,FL,Pasco,34652,USA,28.239742,-82.727467
301556,504,"Philadelphia, PA",DD,Open,Priya Donut Corp.,Burlington,NJ,Burlington,8016,USA,40.070947,-74.864466
301557,504,"Philadelphia, PA",DD,Permanent Close,"PC AND N #9, LLC",Princeton,NJ,Mercer,8540,USA,40.3087,-74.668653
301559,548,"W. Palm Bch/Ft. Pierce, FL",DD,Open,"SOUTHEAST ENTERPRISE HOLDINGS, LLC",West Palm Beach,FL,Palm Beach,33405,USA,26.680067,-80.054764
301560,501,"Metro, NY",DD,Open,ABDD VI LLC,Hopewell Junction,NY,DUTCHESS,12533,USA,41.5787,-73.812336
301568,523,"Burlington, VT-Plattsburgh, NY",DD,Open,"M & W FOODS, INC.",Plattsburgh,NY,CLINTON,12901,USA,44.697269,-73.47685
301569,504,"Philadelphia, PA",DD,Open,"Atlantic Donuts, Inc.",Atlantic City,NJ,Atlantic,8401,USA,39.353813,-74.448063
301571,501,"Metro, NY",DD,Open,"Lily Donuts, Corp.",Edison,NJ,Middlesex,8817,USA,40.513489,-74.404803
301577,528,"Miami-FT. Lauderdale, FL",DD,Open,"SOUTHEAST ENTERPRISE HOLDINGS, LLC",Tamarac,FL,BROWARD,33319,USA,26.185719,-80.203433
301582,506,"E. Mass/Southern, NH",DD,Open,"Wareham Management Group, LLC",Buzzards Bay,MA,Plymouth,2532,USA,41.757192,-70.653408
301583,506,"E. Mass/Southern, NH",DD,Open,"Whiting St. Donuts, Inc.",Hingham,MA,Plymouth,2043,USA,42.180433,-70.899436
301587,533,"Hartford-New Haven, CT",DD,Permanent Close,"Meadow St. Donuts, Inc.",Naugatuck,CT,NEW HAVEN,6770,USA,41.486823,-73.058016
301591,500,"Portland, ME",DD,Open,"D & D Mid-Coast, LLC",Rockland,ME,KNOX,4841,USA,44.109978,-69.109742
301592,506,"E. Mass/Southern, NH",DD,Open,"JAMAR DONUTS, INC.",Derry,NH,Rockingham,3038,USA,42.883244,-71.324414
301602,504,"Philadelphia, PA",DD,Open,"Hongs Enterprises, Inc.",Philadelphia,PA,Philadelphia,19138,USA,40.058586,-75.165408
301605,548,"W. Palm Bch/Ft. Pierce, FL",BR/DD,Open,S.A.M. Donut Corp.,Boynton Beach,FL,Palm Beach,33435,USA,26.516568,-80.05923
301606,548,"W. Palm Bch/Ft. Pierce, FL",DD,Open,CANYON DONUTS CONGRESS LLC,Lake Worth,FL,Palm Beach,33461,USA,26.631442,-80.088181
301610,533,"Hartford-New Haven, CT",DD,Open,"Volis Donuts, LLC",Waterford,CT,New London,6385,USA,41.341592,-72.122525
301613,506,"E. Mass/Southern, NH",DD,Open,"Wilmington Donuts, Inc.",Wilmington,MA,Middlesex,1887,USA,42.550867,-71.177616
301616,523,"Burlington, VT-Plattsburgh, NY",DD,Permanent Close,"89 Donuts, LLC",West Lebanon,NH,Grafton,3784,USA,43.645161,-72.309436
301619,504,"Philadelphia, PA",DD,Open,"Krishnakunj, Inc.",Pennsauken,NJ,Camden,8109,USA,39.937147,-75.076025
301620,504,"Philadelphia, PA",DD,Open,Yogi Donut Corp.,Vineland,NJ,Cumberland,8360,USA,39.492107,-75.042862
301622,506,"E. Mass/Southern, NH",DD,Open,"JJEC Donuts, LLC",Plymouth,MA,Plymouth,2360,USA,41.915911,-70.556176
301626,602,"Chicago, IL",BR/DD,Open,SHREE CICERO INC.,Chicago,IL,Cook,60639,USA,41.923603,-87.746197
301629,533,"Hartford-New Haven, CT",DD,Open,"Meadow St. Donuts, Inc.",Naugatuck,CT,NEW HAVEN,6770,USA,41.485994,-73.050331
301630,543,"Springfield, MA",DD,Permanent Close,"Villa Franca Donuts, Inc.",Westfield,MA,HAMPDEN,1085,USA,42.124444,-72.747561
301633,602,"Chicago, IL",BR/DD,Open,"VCAL Donuts, Inc.",Valparaiso,IN,Porter,46383,USA,41.498906,-87.042119
301635,602,"Chicago, IL",BR/DD,Open,"Griffith Donut, Inc.",Gary,IN,LAKE,46408,USA,41.549478,-87.410419
301638,504,"Philadelphia, PA",DD,Open,"Stefko Doughnuts, LLC",Bethlehem,PA,Northampton,18017,USA,40.639863,-75.347408
301645,506,"E. Mass/Southern, NH",DD,Open,"Second Generation Donuts, LLC",North Quincy,MA,Norfolk,2171,USA,42.280357,-71.034373
301648,523,"Burlington, VT-Plattsburgh, NY",DD,Open,"VERMONT DONUT ENTERPRISES IV, LLC",Essex Junction,VT,Chittenden,5452,USA,44.495981,-73.123571
301649,506,"E. Mass/Southern, NH",DD,Open,"VILA FRANCA DONUTS, LLC",Concord,NH,MERRIMACK,3301,USA,43.212642,-71.514958
301650,521,"Providence, RI",DD,Open,SOMERSET MANUFACTURING CO. INC.,Somerset,MA,Bristol,2726,USA,41.746434,-71.14497
301651,602,"Chicago, IL",BR/DD,Open,Broadway Donut Inc.,Merrillville,IN,LAKE,46410,USA,41.513147,-87.335544
301653,501,"Metro, NY",DD,Open,"JF-Totowa Donuts, Inc.",Totowa,NJ,Passaic,7512,USA,40.894639,-74.239058
301654,533,"Hartford-New Haven, CT",DD,Open,"Rocky Hill Donuts, Inc.",Rocky Hill,CT,Hartford,6067,USA,41.659775,-72.678837
301658,504,"Philadelphia, PA",DD,Open,"Shree Donuts, Inc.",Chadds Ford,PA,Delaware,19317,USA,39.852823,-75.539398
301660,501,"Metro, NY",BR/DD,Open,MULTIBRANDS BRENTWOOD ISLIP AVENUE OPERATING COMPANY LLC,Brentwood,NY,Suffolk,11717,USA,40.78674,-73.22079
301667,524,"Atlanta, GA",DD,Open,"Northridge Donuts Holdings, LLC",Atlanta,GA,Fulton,30350,USA,33.981194,-84.350678
301670,501,"Metro, NY",DD,Open,"Men At Work, LLC",Mamaroneck,NY,Westchester,10543,USA,40.950392,-73.733693
301671,521,"Providence, RI",DD,Open,"S. C. G. K., Inc.",Swansea,MA,BRISTOL,2777,USA,41.731428,-71.205094
301674,523,"Burlington, VT-Plattsburgh, NY",DD,Open,"My Three Sons Donuts, LLC",Colchester,VT,CHITTENDEN,5446,USA,44.498054,-73.157853
301676,506,"E. Mass/Southern, NH",DD,Open,"Cafe Management Associates, LLC",Avon,MA,Norfolk,2322,USA,42.141878,-71.061875
301677,506,"E. Mass/Southern, NH",DD,Open,"Stratham Donuts, Inc.",Stratham,NH,Rockingham,3885,USA,42.996014,-70.925397
301679,506,"E. Mass/Southern, NH",DD,Open,"Market Donuts, Inc.",Lawrence,MA,ESSEX,1843,USA,42.686369,-71.15255
301680,523,"Burlington, VT-Plattsburgh, NY",DD,Open,"Clanew Co., LLC",Claremont,NH,SULLIVAN,3743,USA,43.372394,-72.327203
301687,504,"Philadelphia, PA",DD,Permanent Close,Northeast Donut Shops Management Corporation,Philadelphia,PA,Philadelphia,19107,USA,39.950395,-75.158695
301690,501,"Metro, NY",DD,Open,Victory Perry LLC,Staten Island,NY,Richmond,10314,USA,40.612641,-74.129266
301691,506,"E. Mass/Southern, NH",DD,Open,"Acropolis-Op, LLC",Haverhill,MA,Essex,1830,USA,42.805028,-71.049528
301696,506,"E. Mass/Southern, NH",DD,Open,"Coffee Grinder Donuts, Inc.",Westwood,MA,NORFOLK,2090,USA,42.215244,-71.189239
301697,506,"E. Mass/Southern, NH",DD,Open,THE WALDWIN GROUP INCORPORATED,Boston,MA,SUFFOLK,2115,USA,42.341812,-71.086396
301713,501,"Metro, NY",DD,Open,"HMS Host Tollroads, Inc.",Montvale,NJ,Bergen,7645,USA,41.048272,-74.066302
301722,506,"E. Mass/Southern, NH",DD,Open,"Morley Doughnuts, Inc.",Waltham,MA,Middlesex,2451,USA,42.376537,-71.245333
301726,501,"Metro, NY",BR/DD,Open,DJ Hampton Bays Inc.,Hampton Bays,NY,Suffolk,11946,USA,40.87649,-72.52962
301729,506,"E. Mass/Southern, NH",DD,Open,"Cape Management Team, LLC",South Yarmouth,MA,Barnstable,2664,USA,41.659783,-70.203661
301730,506,"E. Mass/Southern, NH",DD,Permanent Close,"Boston Road Donuts, LLC",Billerica,MA,MIDDLESEX,1821,USA,42.540281,-71.247014
301731,533,"Hartford-New Haven, CT",DD,Permanent Close,"New Milford Donuts, LLC",New Milford,CT,Litchfield,6776,USA,41.573658,-73.416833
301732,523,"Burlington, VT-Plattsburgh, NY",DD,Open,"C & D Donuts, LLC",South Burlington,VT,CHITTENDEN,5403,USA,44.468014,-73.175189
301733,500,"Portland, ME",DD,Open,"Saturn Associates, Inc.",Berlin,NH,COOS,3570,USA,44.468821,-71.184055
301734,506,"E. Mass/Southern, NH",DD,Open,"Exeter Donuts, Inc.",Exeter,NH,Rockingham,3833,USA,42.984828,-70.93785
301738,506,"E. Mass/Southern, NH",DD,Open,Broadway-Op LLC,Haverhill,MA,Essex,1832,USA,42.784081,-71.126222
301739,602,"Chicago, IL",DD,Open,"Standard Foods, Inc.",Chicago,IL,Cook,60604,USA,41.878363,-87.625471
301747,521,"Providence, RI",DD,Permanent Close,"Weekly Grind, LLC",New Bedford,MA,BRISTOL,2746,USA,41.656176,-70.924637
301752,506,"E. Mass/Southern, NH",DD,Open,"NORTH CANTON DONUTS, INC.",Stoughton,MA,Norfolk,2072,USA,42.138457,-71.148729
301753,533,"Hartford-New Haven, CT",DD,Open,"760 Park Avenue Donuts, LLC",Bloomfield,CT,Hartford,6002,USA,41.828488,-72.731447
301760,532,"Albany-Schenectady-Troy, NY",DD,Open,"M.A.L. Donut Venture Of Saratoga, Ltd.",Burnt Hills,NY,SARATOGA,12019,USA,42.909602,-73.899395
301764,501,"Metro, NY",DD,Open,"219 East Avenue Norwalk, LLC",Norwalk,CT,Fairfield,6855,USA,41.104323,-73.40459
301767,511,"Washington, DC",BR/DD,Open,"Dumfries Donuts, Inc.",Dumfries,VA,Prince William,22026,USA,38.561083,-77.330381
301771,506,"E. Mass/Southern, NH",DD,Permanent Close,"Watermark Donut Company, Inc.",Boston,MA,SUFFOLK,2116,USA,42.352247,-71.064689
301772,506,"E. Mass/Southern, NH",DD,Open,"Cape Cod Enterprises, LLC",Sandwich,MA,Barnstable,2563,USA,41.763261,-70.497311
301773,506,"E. Mass/Southern, NH",DD,Open,"Adam Donuts, Inc.",Wilmington,MA,MIDDLESEX,1887,USA,42.539042,-71.147525
301775,506,"E. Mass/Southern, NH",DD,Open,"Walk Hill Donuts, Inc.",Jamaica Plain,MA,SUFFOLK,2130,USA,42.295706,-71.116214
301776,501,"Metro, NY",DD,Open,ABDD V LLC,Hackensack,NJ,Bergen,7601,USA,40.896175,-74.0386
301779,512,"Baltimore, MD",BR/DD,Open,Shriji Corporation,Elkridge,MD,Howard,21075,USA,39.206656,-76.727422
301780,514,"Buffalo, NY",DD,Open,6601 NARAYAN LLC,Niagara Falls,NY,Niagara,14304,USA,43.088833,-78.987819
301785,504,"Philadelphia, PA",DD,Open,Radhey 400 LLC,Media,PA,Delaware,19063,USA,39.915731,-75.382769
301787,501,"Metro, NY",DD,Open,VBCE OF HACKETTSTOWN LIMITED LIABILITY COMPANY,Hackettstown,NJ,WARREN,7840,USA,40.843943,-74.824135
301788,501,"Metro, NY",BR/DD,Open,"Donut Always Go Around, Inc.",Deer Park,NY,Suffolk,11729,USA,40.76182,-73.32972
301795,501,"Metro, NY",DD,Open,GARD of Clark Inc.,Clark,NJ,UNION,7066,USA,40.622075,-74.303339
301797,573,"Roanoke, VA",DD,Open,"FAC VA 3620 Franklin Rd, LLC",Roanoke,VA,Roanoke,24014,USA,37.235062,-79.969841
301798,504,"Philadelphia, PA",DD,Open,"Shyamji Donuts, Inc.",Cherry Hill,NJ,Camden,8003,USA,39.9047,-74.971431
301799,544,"Norfolk, VA",DD,Open,"Norfolk Donuts, LLC",Chesapeake,VA,Chesapeake,23321,USA,36.865101,-76.410873
301801,548,"W. Palm Bch/Ft. Pierce, FL",DD,Open,"Eman Donuts, Inc",Boca Raton,FL,Palm Beach,33432,USA,26.342994,-80.086386
301816,524,"Atlanta, GA",BR/DD,Open,Cuppa Coffee Inc,Athens,GA,Clarke,30606,USA,33.961409,-83.390779
301850,519,"Charleston, SC",DD,Open,"Coastal Franchising, LLC",Charleston,SC,Charleston,29407,USA,32.788319,-80.023408
301852,602,"Chicago, IL",BR/DD,Open,"Unique Group, Inc.",Westmont,IL,DuPage,60559,USA,41.773208,-87.975603
301854,602,"Chicago, IL",DD,Open,"LYLA, INC.",Saint Charles,IL,Kane,60174,USA,41.912431,-88.335481
301856,505,"Detroit, MI",DD,Open,OM ORCHARD LAKE DONUTS INC.,Farmington,MI,Oakland,48334,USA,42.525882,-83.359213
301863,602,"Chicago, IL",BR/DD,Open,2nd Gen - Oakbrook Terrace Inc.,Oakbrook Terrace,IL,DuPage,60181,USA,41.860272,-87.971511
301865,602,"Chicago, IL",DD,Open,Nitin Patel,Elk Grove Village,IL,Cook,60007,USA,42.027972,-87.977845
301868,506,"E. Mass/Southern, NH",BR/DD,Open,"Norfolk Donuts, Inc.",Norfolk,MA,Norfolk,2056,USA,42.119994,-71.324294
301869,602,"Chicago, IL",DD,Open,"Glen Ellyn Donuts, Inc.",Glen Ellyn,IL,DuPage,60137,USA,41.903156,-88.058989
301877,521,"Providence, RI",DD,Open,"Aquidneck Donuts, Inc.",Portsmouth,RI,NEWPORT,2871,USA,41.578086,-71.270792
301888,505,"Detroit, MI",BR/DD,Open,"DIYA, WOODHAVEN LLC",Woodhaven,MI,Wayne,48183,USA,42.140928,-83.227222
301889,534,"Orlando/Daytona/Melbourne, FL",DD,Open,"Harbor City Donuts, Inc.",Melbourne,FL,BREVARD,32901,USA,28.084837,-80.606457
301903,506,"E. Mass/Southern, NH",DD,Open,"Quincy Donuts, Inc.",Quincy,MA,NORFOLK,2169,USA,42.252583,-71.003769
301904,501,"Metro, NY",DD,Open,"Bridgeport Acquisition Co., Inc.",Bridgeport,CT,Fairfield,6606,USA,41.19587,-73.20014
301912,506,"E. Mass/Southern, NH",DD,Open,Salisbury LLC,Salisbury,MA,ESSEX,1952,USA,42.84325,-70.860917
301920,501,"Metro, NY",DD,Permanent Close,Eatontown Donuts LLC,Eatontown,NJ,Monmouth,7724,USA,40.281354,-74.047344
301924,501,"Metro, NY",DD,Open,K BELMAR OCEAN LLC,Belmar,NJ,Monmouth,7719,USA,40.172008,-74.015714
301926,501,"Metro, NY",DD,Open,"Shree Ram Donuts, Inc.",Newburgh,NY,Orange,12550,USA,41.526664,-74.033963
301927,521,"Providence, RI",DD,Open,"Wedge Donuts, Inc",Smithfield,RI,PROVIDENCE,2917,USA,41.881039,-71.476564
301928,533,"Hartford-New Haven, CT",DD,Open,"Waterbury Donuts, Inc.",Waterbury,CT,New Haven,6705,USA,41.541426,-72.997199
301935,504,"Philadelphia, PA",DD,Open,RP DOUGH 2 INC,Philadelphia,PA,PHILADELPHIA,19102,USA,39.950534,-75.16727
301937,506,"E. Mass/Southern, NH",DD,Open,"Allco Donuts, LLC",Lexington,MA,Middlesex,2420,USA,42.425962,-71.195063
301941,506,"E. Mass/Southern, NH",DD,Open,"VALS Donuts, Inc.",Medford,MA,Middlesex,2155,USA,42.410901,-71.120568
301943,506,"E. Mass/Southern, NH",DD,Open,"Grafton Donuts, Inc.",Grafton,MA,WORCESTER,1519,USA,42.21481,-71.691641
301944,602,"Chicago, IL",BR/DD,Open,"Shimurima, Inc.",Chicago,IL,COOK,60618,USA,41.953785,-87.705668
301946,506,"E. Mass/Southern, NH",DD,Open,"Lower Mills Donuts, Inc.",Dorchester,MA,Suffolk,2124,USA,42.272395,-71.067768
301949,506,"E. Mass/Southern, NH",DD,Open,"Boston St. Donuts, Inc.",Dorchester,MA,SUFFOLK,2125,USA,42.320789,-71.061242
302000,501,"Metro, NY",DD,Open,Babson Partners Smith St LLC,Paterson,NJ,Passaic,7505,USA,40.915398,-74.173068
302002,504,"Philadelphia, PA",DD,Open,Vicky and Bonny Coffee Express Turnersville Limited Liabilit,Turnersville,NJ,Gloucester,8012,USA,39.760936,-75.048156
302004,501,"Metro, NY",DD,Open,"Fans, Inc.",Matawan,NJ,Monmouth,7747,USA,40.406488,-74.234516
302005,504,"Philadelphia, PA",DD,Open,Tapan Corp,Rio Grande,NJ,Cape May,8242,USA,39.014192,-74.875664
302006,501,"Metro, NY",BR/DD,Open,DJ Riverhead Inc.,Riverhead,NY,Suffolk,11901,USA,40.932378,-72.673664
302007,501,"Metro, NY",BR/DD,Open,MCR II Donuts LLC,Coram,NY,Suffolk,11727,USA,40.87051,-72.99711
302009,501,"Metro, NY",DD,Open,"AGJ Four, Inc.",Hauppauge,NY,Suffolk,11788,USA,40.815478,-73.192686
302013,504,"Philadelphia, PA",DD,Open,"Ashta Vinayak, Inc.",Conshohocken,PA,Montgomery,19428,USA,40.094399,-75.290399
302014,504,"Philadelphia, PA",DD,Open,"Shivgauri, LLC",Allentown,PA,Lehigh,18103,USA,40.577717,-75.454479
302015,532,"Albany-Schenectady-Troy, NY",DD,Open,"Melissa Donuts, Inc.",Hudson,NY,COLUMBIA,12534,USA,42.254502,-73.767351
302021,506,"E. Mass/Southern, NH",DD,Open,"MANCO, LLC",Manchester,NH,Hillsborough,3103,USA,42.959158,-71.437056
302022,501,"Metro, NY",DD,Open,Medford QSR Inc.,Patchogue,NY,SUFFOLK,11772,USA,40.785903,-73.00945
302030,506,"E. Mass/Southern, NH",DD,Open,Tewksbury Donut Corp.,Lowell,MA,MIDDLESEX,1852,USA,42.625869,-71.307499
302040,501,"Metro, NY",DD,Open,Tunxis Hill Donuts Inc.,Fairfield,CT,Fairfield,6825,USA,41.176747,-73.226983
302049,501,"Metro, NY",BR/DD,Open,WESTSIDE DONUT GLEN COVE VENTURES LLC,Glen Cove,NY,Nassau,11542,USA,40.86589,-73.6325
302050,521,"Providence, RI",DD,Open,"RHODE ISLAND DONUTS, LLC",Cumberland,RI,PROVIDENCE,2864,USA,41.942575,-71.435244
302052,528,"Miami-FT. Lauderdale, FL",DD,Open,"SSC302052, LLC",Miami,FL,Miami-Dade,33157,USA,25.601199,-80.352657
302053,534,"Orlando/Daytona/Melbourne, FL",DD,Open,"MAC ALTAMONTE, LLC",Altamonte Springs,FL,Seminole,32701,USA,28.664223,-81.369079
302055,539,"Tampa/St. Pete/Sarasota, FL",DD,Open,"Rosebud, Inc.",Temple Terrace,FL,HILLSBOROUGH,33617,USA,28.032925,-82.396747
302060,524,"Atlanta, GA",BR/DD,Open,"Macon Donuts & Coffee, Inc.",Decatur,GA,Dekalb,30032,USA,33.78591,-84.23479
302065,567,"Greenville, SC/Ashville, NC",DD,Open,FAC Wade LLC,Greenville,SC,Greenville,29615,USA,34.893253,-82.345294
302068,546,"Columbia, SC",BR/DD,Open,"Gallion Group, Inc.",Columbia,SC,Richland,29210,USA,34.032078,-81.087558
302069,533,"Hartford-New Haven, CT",DD,Open,"Rose Donuts, LLC",New Haven,CT,New Haven,6511,USA,41.292998,-72.920928
302096,650,"Oklahoma City, OK",DD,Open,"Babak Enterprises, Inc.",Oklahoma City,OK,OKLAHOMA,73112,USA,35.511079,-97.599188
302105,501,"Metro, NY",DD,Open,RAMKO DONUTS LLC,Belmar,NJ,MONMOUTH,7719,USA,40.169947,-74.045608
302106,542,"Dayton, OH",BR/DD,Open,PK Foods LLC,Dayton,OH,Montgomery,45449,USA,39.638964,-84.225517
302107,537,"Bangor, ME",DD,Open,"Leall, Inc.",Bangor,ME,PENOBSCOT,4401,USA,44.815717,-68.807
302110,532,"Albany-Schenectady-Troy, NY",DD,Open,"Glenville Donuts, Inc.",Scotia,NY,SCHENECTADY,12302,USA,42.871003,-73.931411
302116,524,"Atlanta, GA",BR/DD,Open,Candler Road Foods LLC,Decatur,GA,DEKALB,30034,USA,33.710625,-84.271511
302117,506,"E. Mass/Southern, NH",DD,Open,"Silca Donuts, Inc.",Haverhill,MA,Essex,1830,USA,42.811069,-71.103086
302124,506,"E. Mass/Southern, NH",DD,Open,"M & N Donuts, Inc.",Danvers,MA,Essex,1923,USA,42.552533,-70.95945
302127,504,"Philadelphia, PA",DD,Open,"Taj Donuts, Inc.",Cinnaminson,NJ,Burlington,8077,USA,39.987928,-75.010525
302129,501,"Metro, NY",DD,Open,"Somerset Donuts, Inc.",Somerset,NJ,Somerset,8873,USA,40.516007,-74.488465
302140,524,"Atlanta, GA",BR/DD,Open,"302140 COFFEE CAFE, LLC",Atlanta,GA,Cobb,30339,USA,33.888226,-84.473489
302147,602,"Chicago, IL",BR/DD,Open,"Suresh, Inc.",Barrington,IL,Cook,60010,USA,42.15399,-88.12838
302169,506,"E. Mass/Southern, NH",DD,Open,"Bedford Donuts, Inc.",Bedford,MA,Middlesex,1730,USA,42.487044,-71.263483
302173,506,"E. Mass/Southern, NH",DD,Open,"East Main St. Donuts, Inc.",Marlborough,MA,MIDDLESEX,1752,USA,42.351086,-71.534092
302195,506,"E. Mass/Southern, NH",DD,Open,"L R Donuts, LLC",Allston,MA,Suffolk,2134,USA,42.349831,-71.130497
302211,501,"Metro, NY",BR/DD,Open,WESTSIDE DONUT BALDWIN VENTURES LLC,Baldwin,NY,NASSAU,11510,USA,40.669,-73.609492
302214,504,"Philadelphia, PA",DD,Open,"Jkp Donuts, Inc.",Mount Laurel,NJ,Burlington,8054,USA,39.936572,-74.968271
302221,501,"Metro, NY",BR/DD,Open,Metro Franchising Commissary LLC,Smithtown,NY,Suffolk,11787,USA,40.857042,-73.204289
302222,501,"Metro, NY",DD,Open,"SDS Donuts, Inc.",Huntington,NY,Suffolk,11743,USA,40.82853,-73.42474
302224,501,"Metro, NY",BR/DD,Open,West Hempstead Donuts Inc.,West Hempstead,NY,Nassau,11552,USA,40.70533,-73.65679
302227,524,"Atlanta, GA",DD,Open,"302227 COFFEE CAFE, LLC",Norcross,GA,GWINNETT,30093,USA,33.904044,-84.205475
302230,533,"Hartford-New Haven, CT",DD,Open,"BRD Donuts, Inc.",Bristol,CT,Hartford,6010,USA,41.693477,-72.915003
302232,505,"Detroit, MI",DD,Open,"Plymouth Donut, Inc.",Plymouth,MI,Wayne,48170,USA,42.359737,-83.432499
302235,501,"Metro, NY",DD,Open,"West Haverstraw Donuts, Inc.",West Haverstraw,NY,Rockland,10993,USA,41.206321,-73.984038
302237,501,"Metro, NY",BR/DD,Open,"Long Island Combo Shops, Inc.",Massapequa,NY,NASSAU,11758,USA,40.69237,-73.47886
302242,501,"Metro, NY",DD,Permanent Close,MULTIBRANDS LINDENHURST 1 LLC,Lindenhurst,NY,SUFFOLK,11757,USA,40.683695,-73.353637
302254,790,"Albuquerque, NM",DD,Open,"Kawa, Inc.",Albuquerque,NM,BERNALILLO,87111,USA,35.130026,-106.550852
302267,501,"Metro, NY",BR/DD,Open,"Deck Flatlands - 8301, LLC",Brooklyn,NY,Kings,11236,USA,40.63731,-73.9111
302270,501,"Metro, NY",BR/DD,Open,DJ NESCONSET INC,Port Jefferson Station,NY,Suffolk,11776,USA,40.923042,-73.049081
302277,535,"Columbus, OH",BR/DD,Open,Pramukh Vandan LLC,Columbus,OH,Franklin,43229,USA,40.085578,-82.957042
302283,501,"Metro, NY",BR/DD,Open,Metro Franchising Commissary LLC,Bellmore,NY,Nassau,11710,USA,40.66421,-73.52211
302285,504,"Philadelphia, PA",DD,Open,Om Donut Corporation,West Chester,PA,Chester,19382,USA,39.968303,-75.578467
302300,501,"Metro, NY",DD,Open,"Kruller, Inc.",Little Ferry,NJ,Bergen,7643,USA,40.856203,-74.04975
302323,504,"Philadelphia, PA",DD,Open,"Kalpana Enterprises, Inc.",New Castle,DE,NEW CASTLE,19720,USA,39.687794,-75.5843
302326,501,"Metro, NY",DD,Open,KARAM AT 10 INC,Ledgewood,NJ,Morris,7852,USA,40.875867,-74.649378
302334,501,"Metro, NY",DD,Open,"BSB Donuts, Inc.",Plainview,NY,NASSAU,11803,USA,40.77647,-73.47079
302335,501,"Metro, NY",DD,Open,ABDD V LLC,Ramsey,NJ,Bergen,7446,USA,41.064925,-74.1289
302336,501,"Metro, NY",DD,Open,"RP-Flemington Donuts, Inc.",Flemington,NJ,HUNTERDON,8822,USA,40.502014,-74.852686
302337,501,"Metro, NY",BR/DD,Open,SAIRAM DONUTS INC,Parsippany,NJ,Morris,7054,USA,40.862686,-74.376917
302349,547,"Toledo, OH",DD,Open,"ALINA DONUTS, INC.",Toledo,OH,Lucas,43606,USA,41.677363,-83.607137
302355,561,"Jacksonville, FL",DD,Open,ORANGE PARK FOODS LLC,Orange Park,FL,Clay,32073,USA,30.166153,-81.747364
302356,501,"Metro, NY",DD,Open,VBCE OF BUDD LAKE LIMITED LIABILITY COMPANY,Budd Lake,NJ,Morris,7828,USA,40.887022,-74.726347
302359,501,"Metro, NY",DD,Open,"Point Pleasant Donuts, Inc.",Point Pleasant,NJ,Ocean,8742,USA,40.084199,-74.063042
302363,506,"E. Mass/Southern, NH",DD,Open,"Cape Cod Enterprises, LLC",Sandwich,MA,Barnstable,2563,USA,41.714009,-70.489607
302365,501,"Metro, NY",BR/DD,Open,Metro Franchising Commissary LLC,Bay Shore,NY,Suffolk,11706,USA,40.728008,-73.229853
302366,501,"Metro, NY",DD,Open,"Hillcrest Marshall, Inc.",Mount Kisco,NY,WESTCHESTER,10549,USA,41.214367,-73.720277
302369,577,"Wilkes Barre-Scranton, PA",DD,Open,"823 Donuts, LLC",Stroudsburg,PA,Monroe,18360,USA,40.984472,-75.197219
302371,515,"Cincinnati, OH",DD,Open,"RSN Enterprises, Inc.",Milford,OH,CLERMONT,45150,USA,39.190553,-84.256971
302375,790,"Albuquerque, NM",DD,Open,"Garner Enterprises, Inc.",Farmington,NM,SAN JUAN,87402,USA,36.745467,-108.165281
302378,506,"E. Mass/Southern, NH",DD,Open,"KCM Donuts, Inc.",Fitchburg,MA,WORCESTER,1420,USA,42.581947,-71.793017
302380,533,"Hartford-New Haven, CT",DD,Open,"Seema Donuts, LLC",New Haven,CT,New Haven,6519,USA,41.297672,-72.926556
302381,505,"Detroit, MI",DD,Open,"OM CLARKSTON DONUTS, INC",Clarkston,MI,OAKLAND,48346,USA,42.731558,-83.38015
302387,510,"Cleveland, OH",BR/DD,Open,"RR Bhavani, Inc",Middleburg Heights,OH,Cuyahoga,44130,USA,41.371731,-81.825002
302395,501,"Metro, NY",DD,Open,"Kelido, Inc.",Madison,NJ,Morris,7940,USA,40.752771,-74.405414
302396,501,"Metro, NY",DD,Open,"Taconic Donuts, LLC",New Paltz,NY,Ulster,12561,USA,41.74264,-74.070237
302398,504,"Philadelphia, PA",DD,Open,"Trinity Family, Inc.",Walnutport,PA,Northampton,18088,USA,40.753489,-75.591808
302400,506,"E. Mass/Southern, NH",DD,Open,"MAIA, LLC",Essex,MA,ESSEX,1929,USA,42.630755,-70.775122
302406,501,"Metro, NY",BR/DD,Open,ALEXASHEL FIVE CORP.,Lindenhurst,NY,Suffolk,11757,USA,40.707648,-73.371232
302415,506,"E. Mass/Southern, NH",DD,Open,"Kristakait Donuts, Inc.",Dorchester,MA,SUFFOLK,2125,USA,42.321912,-71.056874
302420,504,"Philadelphia, PA",DD,Open,Shree Ganapati Inc.,King Of Prussia,PA,Montgomery,19406,USA,40.094689,-75.364228
302427,501,"Metro, NY",DD,Open,"B & L Donuts, LLC",Haledon,NJ,PASSAIC,7508,USA,40.940037,-74.184972
302428,623,"Dallas, TX",DD,Open,Alex Agathakis,Garland,TX,Dallas,75041,USA,32.861111,-96.643053
302429,501,"Metro, NY",DD,Open,BAYVILLE DONUTS LLC,Bayville,NJ,Ocean,8721,USA,39.912227,-74.154719
302434,501,"Metro, NY",DD,Open,"Monticello Donuts, LLC",Monticello,NY,SULLIVAN,12701,USA,41.671007,-74.672062
302435,602,"Chicago, IL",BR/DD,Open,"Doloma, Inc.",Chicago Heights,IL,Cook,60411,USA,41.479878,-87.637083
302442,501,"Metro, NY",DD,Open,Neilkamal Enterprises Inc.,Jericho,NY,Nassau,11753,USA,40.781272,-73.533069
302446,504,"Philadelphia, PA",DD,Open,"United Food Venture II, Inc.",Philadelphia,PA,Philadelphia,19116,USA,40.095592,-75.015019
302447,501,"Metro, NY",BR/DD,Open,Valpar 2 Corp.,Bayside,NY,QUEENS,11361,USA,40.76098,-73.76236
302448,501,"Metro, NY",DD,Open,"Poughkeepsie Donuts, LLC",Poughkeepsie,NY,Dutchess,12601,USA,41.665078,-73.929622
302451,539,"Tampa/St. Pete/Sarasota, FL",DD,Open,"Everfresh Donuts, Inc.",Lakeland,FL,Polk,33801,USA,28.030041,-81.932137
302456,548,"W. Palm Bch/Ft. Pierce, FL",DD,Open,"SOUTHEAST ENTERPRISE HOLDINGS, LLC",Palm Beach Gardens,FL,Palm Beach,33410,USA,26.843481,-80.072464
302458,501,"Metro, NY",DD,Open,LTN Corporation,Edison,NJ,Middlesex,8820,USA,40.556126,-74.345015
302459,506,"E. Mass/Southern, NH",DD,Permanent Close,"Bee Food, Inc.",Boston,MA,SUFFOLK,2114,USA,42.362705,-71.058257
302460,501,"Metro, NY",DD,Open,Emerson Donuts LLC,Emerson,NJ,BERGEN,7630,USA,40.974278,-74.028026
302462,501,"Metro, NY",DD,Open,"Y.C. Chungs, Inc.",Somerville,NJ,Somerset,8876,USA,40.580519,-74.611539
302466,765,"El Paso, TX",DD,Open,"Sizzling Donuts, LLC",El Paso,TX,El Paso,79925,USA,31.753796,-106.344949
302480,501,"Metro, NY",BR/DD,Open,DJ Shirley 1 Inc,Shirley,NY,Suffolk,11967,USA,40.79994,-72.86588
302481,501,"Metro, NY",DD,Open,"ADDARSH, LLC",Piscataway,NJ,Middlesex,8854,USA,40.553586,-74.433667
302484,501,"Metro, NY",DD,Open,"575 Fulton Donuts, Inc.",Farmingdale,NY,Nassau,11735,USA,40.72866,-73.44797
302485,501,"Metro, NY",BR/DD,Open,Metro Franchising Commissary LLC,Melville,NY,Suffolk,11747,USA,40.78916,-73.4157
302486,506,"E. Mass/Southern, NH",DD,Open,"Progressive Foods, Inc.",Rochester,NH,Strafford,3868,USA,43.333431,-70.974472
302488,506,"E. Mass/Southern, NH",DD,Open,"Crescent St. Donuts, Inc.",Brockton,MA,PLYMOUTH,2302,USA,42.080592,-70.993909
302495,543,"Springfield, MA",DD,Open,"AAH, Corp.",Granby,MA,HAMPSHIRE,1033,USA,42.246823,-72.544506
302506,511,"Washington, DC",BR/DD,Open,"Savi Group, Inc.",Hyattsville,MD,Prince Georges,20783,USA,38.983444,-76.977339
302507,544,"Norfolk, VA",DD,Open,"V.B. Donuts, LLC",Virginia Beach,VA,Virginia Beach,23462,USA,36.838001,-76.17982
302509,504,"Philadelphia, PA",DD,Open,Vashree Corporation,Camden,NJ,CAMDEN,8102,USA,39.943519,-75.119114
302512,548,"W. Palm Bch/Ft. Pierce, FL",DD,Open,"Stuart Donuts, LLC",Stuart,FL,MARTIN,34994,USA,27.191384,-80.254832
302513,602,"Chicago, IL",BR/DD,Open,Territorial Corporation,Chicago,IL,Cook,60634,USA,41.936217,-87.766314
302514,534,"Orlando/Daytona/Melbourne, FL",BR/DD,Open,"MAC LAKE MARY, LLC",Lake Mary,FL,Seminole,32746,USA,28.75655,-81.356686
302516,512,"Baltimore, MD",DD,Open,Sitaram Donuts Inc,Baltimore,MD,BALTIMORE,21236,USA,39.415043,-76.461361
302518,533,"Hartford-New Haven, CT",DD,Open,"Oxford Donuts, LLC",Oxford,CT,New Haven,6478,USA,41.405734,-73.093032
302521,506,"E. Mass/Southern, NH",DD,Open,"New Generation Donuts, LLC",Falmouth,MA,BARNSTABLE,2540,USA,41.560844,-70.619272
302522,504,"Philadelphia, PA",DD,Open,Radhey 1165 LLC,Media,PA,Delaware,19063,USA,39.913211,-75.437503
302525,504,"Philadelphia, PA",DD,Permanent Close,Southwest Donut Shops Management Corp.,Philadelphia,PA,Philadelphia,19145,USA,39.922411,-75.186203
302526,504,"Philadelphia, PA",DD,Open,"Sonal Donuts, Inc.",Pleasantville,NJ,ATLANTIC,8232,USA,39.389856,-74.524451
302529,539,"Tampa/St. Pete/Sarasota, FL",BR/DD,Open,"US 19 Donuts, Inc.",Palm Harbor,FL,Pinellas,34684,USA,28.074319,-82.739303
302530,501,"Metro, NY",BR/DD,Open,HILLSIDE QSR LLC,Floral Park,NY,Queens,11004,USA,40.73614,-73.71261
302531,506,"E. Mass/Southern, NH",DD,Open,C & S Donuts Corporation,Somerville,MA,MIDDLESEX,2145,USA,42.397293,-71.104913
302534,504,"Philadelphia, PA",DD,Open,"Shivgauri, LLC",Allentown,PA,LEHIGH,18104,USA,40.613046,-75.571491
302537,618,"Houston, TX",DD,Open,"Yogi Investments, Inc.",Houston,TX,Harris,77090,USA,30.017874,-95.44132
302540,577,"Wilkes Barre-Scranton, PA",DD,Open,Cope Enterprises LLC,Wilkes Barre,PA,Luzerne,18702,USA,41.249524,-75.855092
302542,501,"Metro, NY",BR/DD,Open,Metro Franchising Commissary LLC,Flushing,NY,QUEENS,11366,USA,40.72304,-73.79951
302550,501,"Metro, NY",DD,Open,"Shree Sambhavnath, LLC",Newark,NJ,Essex,7107,USA,40.780166,-74.175751
302553,501,"Metro, NY",DD,Open,"RF BYRAM DONUTS, INC.",Stanhope,NJ,Sussex,7874,USA,40.924506,-74.718928
302556,501,"Metro, NY",DD,Open,"NR Enterprises Syndicate, LLC",Caldwell,NJ,Essex,7006,USA,40.836917,-74.272572
302560,515,"Cincinnati, OH",DD,Open,JND OF BEECHMONT LLC,Cincinnati,OH,Hamilton,45255,USA,39.073031,-84.334317
302561,528,"Miami-FT. Lauderdale, FL",DD,Open,"SR 84 DONUTS, LLC",Fort Lauderdale,FL,Broward,33315,USA,26.092856,-80.153123
302562,506,"E. Mass/Southern, NH",DD,Open,"Epping Donuts, Inc.",Epping,NH,ROCKINGHAM,3042,USA,43.028816,-71.074355
302564,524,"Atlanta, GA",BR/DD,Open,"302564 COFFEE CAFE, LLC",Duluth,GA,Gwinnett,30096,USA,34.006894,-84.170442
302567,602,"Chicago, IL",DD,Open,"Crestwood Donuts, Inc.",Crestwood,IL,COOK,60445,USA,41.643861,-87.737733
302575,533,"Hartford-New Haven, CT",DD,Open,"Couto Donuts of Montville, LLC",Montville,CT,NEW LONDON,6353,USA,41.443161,-72.1043
302577,506,"E. Mass/Southern, NH",DD,Open,"ACM DONUTS, LLC",Acton,MA,Middlesex,1720,USA,42.475191,-71.4088
302581,602,"Chicago, IL",BR/DD,Open,"Mariyam II, Inc.",Crest Hill,IL,Will,60435,USA,41.554686,-88.124828
302582,501,"Metro, NY",DD,Open,202 NBG Inc.,Hollis,NY,QUEENS,11423,USA,40.72019,-73.76209
302583,501,"Metro, NY",DD,Open,"Burnside Avenue Donuts, Inc.",Lawrence,NY,NASSAU,11559,USA,40.62395,-73.73522
302587,506,"E. Mass/Southern, NH",DD,Open,"Whitman Donuts, Inc.",Hanson,MA,Plymouth,2341,USA,42.066095,-70.868704
302594,526,"Utica, NY",DD,Open,"ROME DONUTS, LLC",Rome,NY,Oneida,13440,USA,43.23048,-75.439599
302595,523,"Burlington, VT-Plattsburgh, NY",DD,Open,"VERMONT DONUT ENTERPRISES V, LLC",Saint Albans,VT,FRANKLIN,5478,USA,44.834656,-73.079653
302599,506,"E. Mass/Southern, NH",DD,Open,"Bellingham Donuts, Inc.",Bellingham,MA,NORFOLK,2019,USA,42.113872,-71.472525
302600,504,"Philadelphia, PA",DD,Open,"Amar Enterprises, Inc.",Exton,PA,Chester,19341,USA,40.028839,-75.620439
302601,501,"Metro, NY",DD,Open,Greenwich Donut Corp,Greenwich,CT,Fairfield,6830,USA,41.024362,-73.63575
302602,533,"Hartford-New Haven, CT",DD,Open,"ANTONIOS DONUTS, LLC",Hamden,CT,NEW HAVEN,6514,USA,41.339011,-72.935378
302606,523,"Burlington, VT-Plattsburgh, NY",DD,Open,"Vermont Donut Enterprises, LLC",Essex,VT,CHITTENDEN,5453,USA,44.502975,-73.031261
302607,501,"Metro, NY",BR/DD,Open,"Lakeville Donuts, Inc.",New Hyde Park,NY,Nassau,11040,USA,40.752228,-73.700869
302611,521,"Providence, RI",DD,Open,"Plainville Donuts, Inc.",Plainville,MA,NORFOLK,2762,USA,42.009231,-71.304936
302615,501,"Metro, NY",DD,Open,Sikand 440 Limited Liability Company,Rochelle Park,NJ,BERGEN,7662,USA,40.909924,-74.072887
302617,501,"Metro, NY",DD,Open,"Nevada Donuts, Inc.",Newark,NJ,ESSEX,7102,USA,40.730794,-74.176282
302618,501,"Metro, NY",DD,Open,"Homeric Donuts, Inc.",Manalapan,NJ,Monmouth,7726,USA,40.309,-74.303
302619,659,"Nashville, TN",DD,Open,CBG TN 302619 LLC,Clarksville,TN,Montgomery,37042,USA,36.57837,-87.40837
302620,506,"E. Mass/Southern, NH",DD,Temporary Close,"Newtonville Donuts, Inc.",Newton,MA,Middlesex,2460,USA,42.351698,-71.207242
302625,536,"Youngstown, OH",DD,Permanent Close,"Spice Mill, Inc.",Poland,OH,MAHONING,44514,USA,41.024013,-80.629876
302627,501,"Metro, NY",BR/DD,Open,"2317 BLESSING FOOD, LLC",College Point,NY,Queens,11356,USA,40.785937,-73.836214
302632,532,"Albany-Schenectady-Troy, NY",DD,Open,"T.S.T.S. Donuts, Inc.",Cobleskill,NY,Schoharie,12043,USA,42.679581,-74.464597
302633,521,"Providence, RI",DD,Open,"DP Donuts, LLC",North Easton,MA,BRISTOL,2356,USA,42.067775,-71.087644
302635,602,"Chicago, IL",DD,Open,"Carol Stream Donuts, Inc.",Carol Stream,IL,DuPage,60188,USA,41.940553,-88.151658
302642,504,"Philadelphia, PA",DD,Open,RAO 11 DONUTS INC.,Huntingdon Valley,PA,Montgomery,19006,USA,40.171811,-75.072592
302643,506,"E. Mass/Southern, NH",DD,Open,"ARLINGTON COFFEE CONNECTION, LLC",Arlington,MA,Middlesex,2474,USA,42.409907,-71.139434
302648,602,"Chicago, IL",DD,Open,SHIV DONUTS INC.,Summit Argo,IL,COOK,60501,USA,41.779901,-87.80133
302652,506,"E. Mass/Southern, NH",DD,Permanent Close,"Samoset St. Donuts, Inc.",Kingston,MA,Plymouth,2364,USA,41.975286,-70.711494
302653,524,"Atlanta, GA",DD,Open,Stockbridge Foods LLC,Stockbridge,GA,HENRY,30281,USA,33.550106,-84.254677
302654,506,"E. Mass/Southern, NH",DD,Open,"GREATER BOSTON DONUTS, LLC",Medford,MA,Middlesex,2155,USA,42.42276,-71.091923
302657,506,"E. Mass/Southern, NH",DD,Open,"T.J. Donuts, Inc.",Kingston,MA,Plymouth,2364,USA,42.010762,-70.731306
302666,501,"Metro, NY",DD,Open,"Nas Donut, Inc.",Flanders,NJ,MORRIS,7836,USA,40.830647,-74.708592
302670,506,"E. Mass/Southern, NH",DD,Open,"GREATER BOSTON DONUTS, LLC",Charlestown,MA,SUFFOLK,2129,USA,42.382444,-71.079075
302671,506,"E. Mass/Southern, NH",DD,Open,"Broadway Donuts I, Inc.",Everett,MA,Middlesex,2149,USA,42.420147,-71.043889
302672,533,"Hartford-New Haven, CT",DD,Open,"Millennium Donuts, Inc.",West Haven,CT,NEW HAVEN,6516,USA,41.269131,-72.974822
302673,506,"E. Mass/Southern, NH",DD,Open,Epstein-Porter Trust,Somerville,MA,MIDDLESEX,2143,USA,42.383403,-71.1066
302675,506,"E. Mass/Southern, NH",DD,Open,"Kristen, LLC",Reading,MA,MIDDLESEX,1867,USA,42.521075,-71.103466
302676,506,"E. Mass/Southern, NH",DD,Open,"Sunnyhurst Donuts, Inc.",Stoneham,MA,MIDDLESEX,2180,USA,42.488983,-71.099881
302677,506,"E. Mass/Southern, NH",DD,Open,"C & C Donuts, Inc.",Wilmington,MA,MIDDLESEX,1887,USA,42.558218,-71.182341
302678,506,"E. Mass/Southern, NH",DD,Open,"Washington Donuts, Inc.",Woburn,MA,MIDDLESEX,1801,USA,42.497731,-71.12545
302682,506,"E. Mass/Southern, NH",DD,Open,"C.A. Donuts I, Inc.",West Roxbury,MA,SUFFOLK,2132,USA,42.276188,-71.166714
302683,506,"E. Mass/Southern, NH",DD,Open,"Gremada Donuts, LLC",Billerica,MA,MIDDLESEX,1821,USA,42.534753,-71.236711
302685,537,"Bangor, ME",DD,Open,"Xanadu, Inc.",Calais,ME,WASHINGTON,4619,USA,45.181805,-67.285165
302686,506,"E. Mass/Southern, NH",DD,Open,"BROADWAY DONUTS II, INC.",Everett,MA,Middlesex,2149,USA,42.409317,-71.053586
302688,602,"Chicago, IL",DD,Open,NRN 47 Cicero Inc.,Chicago,IL,Cook,60632,USA,41.808304,-87.743015
302689,602,"Chicago, IL",BR/DD,Open,Satelite Inc.,Chicago,IL,Cook,60623,USA,41.840649,-87.704727
302691,506,"E. Mass/Southern, NH",DD,Open,"Marblehead Donuts, Inc.",Marblehead,MA,ESSEX,1945,USA,42.500547,-70.858517
302692,501,"Metro, NY",DD,Open,"FAC 50 MAM, LLC",White Plains,NY,Westchester,10601,USA,41.031194,-73.766308
302693,506,"E. Mass/Southern, NH",DD,Open,"Adams Plaza Donuts, Inc.",Quincy,MA,Norfolk,2169,USA,42.2536,-71.027653
302694,511,"Washington, DC",DD,Open,Vigario Investment Two LLC,Fairfax,VA,Fairfax,22033,USA,38.880784,-77.398364
302697,533,"Hartford-New Haven, CT",DD,Open,"Demitra Donuts, LLC",New Haven,CT,New Haven,6511,USA,41.305252,-72.933927
302698,577,"Wilkes Barre-Scranton, PA",DD,Open,"Summit Valley Partners, LLC",Berwick,PA,Columbia,18603,USA,41.053567,-76.236225
302701,533,"Hartford-New Haven, CT",DD,Open,"New Milford Donuts, LLC",New Milford,CT,LITCHFIELD,6776,USA,41.577197,-73.408392
302706,501,"Metro, NY",DD,Permanent Close,Metro Franchising Commissary LLC,Huntington,NY,SUFFOLK,11743,USA,40.871856,-73.427628
302710,506,"E. Mass/Southern, NH",DD,Open,"Watermark Donut Company, Inc.",Boston,MA,Suffolk,2111,USA,42.349631,-71.063564
302722,515,"Cincinnati, OH",DD,Open,"Benhase Holdings, LLC",Cincinnati,OH,Hamilton,45202,USA,39.101953,-84.511605
302723,506,"E. Mass/Southern, NH",DD,Open,"Wareham Management Group, LLC",Wareham,MA,Plymouth,2571,USA,41.789103,-70.750583
302724,515,"Cincinnati, OH",DD,Open,"LAXMINARAYAN, CORP.",Sharonville,OH,HAMILTON,45241,USA,39.293899,-84.393208
302729,539,"Tampa/St. Pete/Sarasota, FL",DD,Open,"ST-RA, Inc.",Port Richey,FL,Pasco,34668,USA,28.322892,-82.699672
302732,512,"Baltimore, MD",DD,Open,"Divya Donut, Inc.",Baltimore,MD,Baltimore,21237,USA,39.337539,-76.480456
302733,501,"Metro, NY",DD,Open,"37th Avenue Jackson Heights, LLC",Jackson Heights,NY,Queens,11372,USA,40.74895,-73.89026
302734,511,"Washington, DC",DD,Open,"Ashapura, Inc.",Camp Springs,MD,Prince Georges,20746,USA,38.805544,-76.904894
302737,504,"Philadelphia, PA",DD,Open,Phillipsburg 22 LLC,Phillipsburg,NJ,Warren,8865,USA,40.698231,-75.173814
302739,506,"E. Mass/Southern, NH",DD,Open,"Worcester Donuts, Inc.",Worcester,MA,WORCESTER,1604,USA,42.268276,-71.780615
302742,501,"Metro, NY",DD,Open,"Kelido, Inc.",Morristown,NJ,Morris,7960,USA,40.798353,-74.473975
302744,602,"Chicago, IL",DD,Open,"Bloomingdale Donuts, Inc.",Bloomingdale,IL,DuPage,60108,USA,41.952538,-88.122359
302754,501,"Metro, NY",DD,Open,"Michael Donuts, Inc.",Port Monmouth,NJ,Monmouth,7758,USA,40.42586,-74.10326
302757,501,"Metro, NY",DD,Open,GARD of Rahway Inc.,Rahway,NJ,Union,7065,USA,40.606052,-74.288776
302769,533,"Hartford-New Haven, CT",DD,Open,"Maria Donuts, LLC",East Haven,CT,NEW HAVEN,6512,USA,41.286847,-72.880186
302775,506,"E. Mass/Southern, NH",DD,Open,"Paraskevi, LLC",Peabody,MA,ESSEX,1960,USA,42.549777,-71.005884
302776,506,"E. Mass/Southern, NH",DD,Open,"Ashmont Donuts, Inc.",Dorchester,MA,SUFFOLK,2124,USA,42.284944,-71.064694
302782,506,"E. Mass/Southern, NH",DD,Open,"Courtyard Donuts, Inc.",Cambridge,MA,MIDDLESEX,2141,USA,42.372248,-71.079656
302795,504,"Philadelphia, PA",DD,Open,"United Food Systems, Inc.",Philadelphia,PA,Philadelphia,19124,USA,40.013678,-75.06795
302797,501,"Metro, NY",DD,Open,Hima Inc.,Harrison,NJ,HUDSON,7029,USA,40.743188,-74.155334
302800,506,"E. Mass/Southern, NH",DD,Open,"Ashland Donuts, Inc.",Framingham,MA,MIDDLESEX,1702,USA,42.277478,-71.413014
302801,533,"Hartford-New Haven, CT",DD,Temporary Close,"Seema Donuts, LLC",New Haven,CT,NEW HAVEN,6519,USA,41.297672,-72.926556
302804,506,"E. Mass/Southern, NH",DD,Open,"Allco II, Inc.",Somerville,MA,Middlesex,2144,USA,42.414641,-71.131065
302807,501,"Metro, NY",DD,Permanent Close,"New Danbury Donuts, Inc.",Brookfield,CT,Fairfield,6804,USA,41.446,-73.404
302809,521,"Providence, RI",DD,Open,"Admiral Donuts, Inc.",North Providence,RI,PROVIDENCE,2908,USA,41.840567,-71.419351
302811,504,"Philadelphia, PA",DD,Open,"PC AND N #17, LLC",Langhorne,PA,Bucks,19047,USA,40.172397,-74.890419
302812,501,"Metro, NY",DD,Open,"Mantiff, Inc.",Franklin,NJ,Sussex,7416,USA,41.115739,-74.580808
302813,501,"Metro, NY",DD,Temporary Close,"T & R Donuts, Inc.",Carteret,NJ,Middlesex,7008,USA,40.592908,-74.241189
302817,506,"E. Mass/Southern, NH",DD,Open,"Park Avenue Donuts, Inc.",Worcester,MA,Worcester,1603,USA,42.242247,-71.845058
302820,506,"E. Mass/Southern, NH",DD,Open,"Fitchburg Donuts, Inc.",Fitchburg,MA,WORCESTER,1420,USA,42.585453,-71.777978
302823,526,"Utica, NY",DD,Open,"Chestnut Donuts, Inc.",Oneonta,NY,Otsego,13820,USA,42.455389,-75.096305
302831,501,"Metro, NY",DD,Open,"Biazzo Baking Company, Inc.",Bloomfield,NJ,Essex,7003,USA,40.812008,-74.194286
302832,501,"Metro, NY",DD,Open,"KETU 8, LLC",Green Brook,NJ,Somerset,8812,USA,40.609081,-74.464467
302834,555,"Syracuse, NY",DD,Open,"Abigail Donuts, LLC",Syracuse,NY,ONONDAGA,13219,USA,43.048783,-76.228886
302835,524,"Atlanta, GA",DD,Open,"Feng Fong Enterprise, Inc.",Douglasville,GA,Douglas,30135,USA,33.725019,-84.761547
302836,501,"Metro, NY",DD,Open,Prayosha Sloatsburg Donut Corp.,Sloatsburg,NY,Rockland,10974,USA,41.155608,-74.193372
302848,524,"Atlanta, GA",DD,Open,"Druid Hills Donuts Holdings, L.L.C.",Atlanta,GA,Dekalb,30329,USA,33.817936,-84.312622
302849,512,"Baltimore, MD",DD,Open,"NORMANDY DONUTS, INC.",Ellicott City,MD,HOWARD,21043,USA,39.284828,-76.805733
302851,524,"Atlanta, GA",BR/DD,Open,"Macon Donuts & Coffee, Inc.",Stone Mountain,GA,Gwinnett,30087,USA,33.82433,-84.108575
302857,602,"Chicago, IL",DD,Permanent Close,"Nasa Three, Inc.",Chicago,IL,COOK,60638,USA,41.771772,-87.741667
302858,602,"Chicago, IL",DD,Open,"Diya 79th Street, Inc.",Chicago,IL,Cook,60620,USA,41.750663,-87.629805
302861,506,"E. Mass/Southern, NH",DD,Open,Centerville Donut Corporation,Lowell,MA,Middlesex,1850,USA,42.649383,-71.303997
302863,501,"Metro, NY",DD,Permanent Close,"JKA-Plainfield-Front Donuts, Inc.",Plainfield,NJ,UNION,7062,USA,40.642564,-74.406352
302865,501,"Metro, NY",DD,Open,"F.K.B. Donuts Of Massapequa, Inc.",Massapequa Park,NY,NASSAU,11762,USA,40.6772,-73.454786
302867,506,"E. Mass/Southern, NH",DD,Open,Lowell Road Donuts LLC,Hudson,NH,HILLSBOROUGH,3051,USA,42.732011,-71.4256
302869,533,"Hartford-New Haven, CT",DD,Open,"PTM Enterprises, LLC",Putnam,CT,WINDHAM,6260,USA,41.924411,-71.880192
302875,501,"Metro, NY",BR/DD,Open,Renson Food Corporation,Long Island City,NY,QUEENS,11101,USA,40.75249,-73.92109
302876,521,"Providence, RI",DD,Open,"South County Donuts, Inc.",Providence,RI,Providence,2909,USA,41.817842,-71.444239
302880,506,"E. Mass/Southern, NH",DD,Open,"Holie Donut II, Inc.",Chelsea,MA,Suffolk,2150,USA,42.405171,-71.035633
302883,506,"E. Mass/Southern, NH",DD,Open,Lynnfield LLC,Lynnfield,MA,ESSEX,1940,USA,42.514683,-71.013558
302886,501,"Metro, NY",DD,Open,Estabena Trading Corp.,Edison,NJ,MIDDLESEX,8817,USA,40.506787,-74.393443
302889,565,"Elmira, NY",DD,Open,BAPA CONHOCTON ST LLC,Corning,NY,Steuben,14830,USA,42.140221,-77.040543
302897,500,"Portland, ME",DD,Open,"Saturn Associates, Inc.",Westbrook,ME,Cumberland,4092,USA,43.704036,-70.325781
302898,500,"Portland, ME",DD,Open,"Saturn Associates, Inc.",Westbrook,ME,CUMBERLAND,4092,USA,43.677583,-70.331458
302904,500,"Portland, ME",DD,Permanent Close,BRUNSWICK DONUTS INC.,Brunswick,ME,Cumberland,4011,USA,43.906897,-69.918435
302910,506,"E. Mass/Southern, NH",DD,Open,"Marval, Inc.",Framingham,MA,MIDDLESEX,1701,USA,42.308347,-71.384936
302911,511,"Washington, DC",BR/DD,Open,"DMD BALTIMORE-14903, LLC",Laurel,MD,Prince Georges,20707,USA,39.094753,-76.852953
302912,501,"Metro, NY",DD,Open,Kowtow 8 Corporation,South Orange,NJ,ESSEX,7079,USA,40.746211,-74.259678
302913,602,"Chicago, IL",DD,Open,Expansion 83 Inc.,Buffalo Grove,IL,Lake,60089,USA,42.173883,-87.9831
302914,555,"Syracuse, NY",DD,Open,"Syracuse Foodservice Group, Inc.",North Syracuse,NY,ONONDAGA,13212,USA,43.145494,-76.126447
302915,504,"Philadelphia, PA",DD,Open,Rao 8 Inc.,Philadelphia,PA,Philadelphia,19114,USA,40.073381,-75.033783
302917,501,"Metro, NY",DD,Open,"Bridgeport Acquisition Co., Inc.",Bridgeport,CT,Fairfield,6610,USA,41.200957,-73.184231
302918,524,"Atlanta, GA",DD,Open,"Holcomb Bridge Donuts Holdings, LLC",Roswell,GA,Fulton,30076,USA,34.030783,-84.338936
302925,524,"Atlanta, GA",DD,Open,"302925 COFFEE CAFE, LLC",Smyrna,GA,Cobb,30080,USA,33.873661,-84.531011
302929,501,"Metro, NY",DD,Open,NORTHVALE JAVA LLC,Northvale,NJ,Bergen,7647,USA,41.01537,-73.945567
302930,501,"Metro, NY",DD,Open,"Dan Daniels, Inc.",Morris Plains,NJ,MORRIS,7950,USA,40.823994,-74.480317
302931,577,"Wilkes Barre-Scranton, PA",DD,Open,"F & V, Inc.",Eynon,PA,Lackawanna,18403,USA,41.504724,-75.579235
302933,501,"Metro, NY",DD,Open,CROSSBAY QSR LLC,Howard Beach,NY,Queens,11414,USA,40.65215,-73.83852
302934,602,"Chicago, IL",DD,Open,Shree Kali Inc.,Bensenville,IL,DuPage,60106,USA,41.960837,-87.95499
302940,506,"E. Mass/Southern, NH",DD,Open,Read-Sal LLC,Reading,MA,MIDDLESEX,1867,USA,42.526208,-71.086853
302942,548,"W. Palm Bch/Ft. Pierce, FL",DD,Open,"Ekonomy Foods, Inc.",Fort Pierce,FL,Saint Lucie,34945,USA,27.413249,-80.396273
302943,548,"W. Palm Bch/Ft. Pierce, FL",DD,Open,"Stuart Donuts, LLC",Stuart,FL,Martin,34997,USA,27.131737,-80.203509
302944,506,"E. Mass/Southern, NH",DD,Open,"Dander Donuts, Inc.",Quincy,MA,NORFOLK,2169,USA,42.234311,-71.011248
302945,602,"Chicago, IL",BR/DD,Open,BELVIDERE COFFEE INC.,Waukegan,IL,Lake,60085,USA,42.349497,-87.872992
302946,602,"Chicago, IL",BR/DD,Open,"B.N.K., Inc.",West Chicago,IL,DuPage,60185,USA,41.881239,-88.194772
302947,602,"Chicago, IL",DD,Permanent Close,"Bloom-Lake Donuts, Inc.",Bloomingdale,IL,DU PAGE,60108,USA,41.957814,-88.073886
302948,506,"E. Mass/Southern, NH",DD,Open,"Hillsboro Donuts, Inc.",Hillsboro,NH,Hillsborough,3244,USA,43.111306,-71.914948
302949,506,"E. Mass/Southern, NH",DD,Open,"MANCO, LLC",Manchester,NH,HILLSBOROUGH,3103,USA,42.962221,-71.439843
302952,501,"Metro, NY",DD,Open,"125th Street Donuts & More, Inc.",New York,NY,New York,10027,USA,40.811,-73.952267
302954,501,"Metro, NY",BR/DD,Open,Metro Franchising Commissary LLC,Merrick,NY,Nassau,11566,USA,40.653828,-73.557633
302955,501,"Metro, NY",DD,Open,"Hillcrest Marshall, Inc.",Elmsford,NY,WESTCHESTER,10523,USA,41.052702,-73.814666
302965,602,"Chicago, IL",DD,Permanent Close,"ACKS Donuts, Inc.",Orland Park,IL,Cook,60462,USA,41.607017,-87.793825
302968,506,"E. Mass/Southern, NH",DD,Open,"Sugar Donuts, Inc.",Lynn,MA,ESSEX,1902,USA,42.465915,-70.930409
302971,501,"Metro, NY",DD,Open,Shree Suparashnath Inc,Newark,NJ,ESSEX,7102,USA,40.734504,-74.165541
302972,511,"Washington, DC",DD,Open,"Vigario Investment Six, LLC",Vienna,VA,FAIRFAX,22180,USA,38.897582,-77.269689
302974,521,"Providence, RI",DD,Open,"Depot Donuts, Inc.",North Easton,MA,Bristol,2356,USA,42.024339,-71.119033
302975,506,"E. Mass/Southern, NH",DD,Open,"T.J. Donuts, Inc.",Kingston,MA,Plymouth,2364,USA,41.987316,-70.715879
302977,501,"Metro, NY",DD,Open,Rossville Woodrow LLC,Staten Island,NY,RICHMOND,10309,USA,40.542811,-74.206494
302978,501,"Metro, NY",DD,Open,"K.H.K. DONUTS, INC.",Hillsborough,NJ,Somerset,8844,USA,40.506491,-74.641711
302982,501,"Metro, NY",DD,Open,"KPNFD-Ridgewood, Inc.",Ridgewood,NY,QUEENS,11385,USA,40.71267,-73.90677
302984,501,"Metro, NY",DD,Open,Bridgeport Donuts LLC,Bridgeport,CT,Fairfield,6604,USA,41.177877,-73.189243
302987,506,"E. Mass/Southern, NH",DD,Open,"JLC Donuts, Inc.",West Boylston,MA,WORCESTER,1583,USA,42.346039,-71.787044
302989,506,"E. Mass/Southern, NH",DD,Open,"Hancock St. Donuts, Inc.",Braintree,MA,NORFOLK,2184,USA,42.196814,-71.005642
302991,602,"Chicago, IL",DD,Open,Royal Corporation,Maywood,IL,Cook,60153,USA,41.875908,-87.833758
302993,506,"E. Mass/Southern, NH",DD,Open,"John-Kevin Donuts, Inc.",Boston,MA,Suffolk,2127,USA,42.329686,-71.057525
302994,506,"E. Mass/Southern, NH",DD,Open,"Allco Donuts, LLC",Arlington,MA,Middlesex,2474,USA,42.419461,-71.152864
302996,501,"Metro, NY",DD,Open,"Indu, Inc.",Randolph,NJ,Morris,7869,USA,40.864799,-74.557143
303307,501,"Metro, NY",DD,Open,COURTHOUSE SQUARE DONUTS LLC,Stamford,CT,FAIRFIELD,6901,USA,41.059745,-73.533891
303311,501,"Metro, NY",DD,Open,"Old Danbury Donuts, Inc.",Bethel,CT,FAIRFIELD,6801,USA,41.376866,-73.425716
303317,533,"Hartford-New Haven, CT",DD,Open,"UF-Seymour Donuts, LLC",Seymour,CT,New Haven,6483,USA,41.397404,-73.062504
303318,533,"Hartford-New Haven, CT",DD,Open,"Madison Donuts, Inc.",Madison,CT,New Haven,6443,USA,41.274394,-72.553831
303320,533,"Hartford-New Haven, CT",DD,Open,"NORTH BRANFORD DONUTS, INC.",North Branford,CT,New Haven,6471,USA,41.327778,-72.782567
303321,504,"Philadelphia, PA",DD,Open,"Erin, Inc.",New Castle,DE,New Castle,19720,USA,39.710556,-75.562722
303322,504,"Philadelphia, PA",DD,Open,"OHanlon, Inc.",Wilmington,DE,NEW CASTLE,19808,USA,39.731614,-75.642461
303324,504,"Philadelphia, PA",DD,Open,"JIGNA ENTERPRISES, INC.",New Castle,DE,New Castle,19720,USA,39.660285,-75.610785
303331,504,"Philadelphia, PA",DD,Open,The C FAMILY INC,Newark,DE,New Castle,19713,USA,39.675658,-75.682867
303333,504,"Philadelphia, PA",DD,Open,"Armagh, Inc",Newark,DE,NEW CASTLE,19702,USA,39.605117,-75.74785
303334,504,"Philadelphia, PA",DD,Open,"Nitin Enterprises, Inc.",Middletown,DE,New Castle,19709,USA,39.465572,-75.722111
303356,539,"Tampa/St. Pete/Sarasota, FL",DD,Permanent Close,"ST. PETERSBURG DONUTS, INC.",Saint Petersburg,FL,PINELLAS,33703,USA,27.827581,-82.646987
303365,528,"Miami-FT. Lauderdale, FL",DD,Open,"SOUTHEAST ENTERPRISE HOLDINGS, LLC",Hialeah,FL,Miami-Dade,33014,USA,25.918025,-80.2927
303368,534,"Orlando/Daytona/Melbourne, FL",DD,Open,"MAC CASSELBERRY, LLC",Casselberry,FL,Seminole,32707,USA,28.649537,-81.325676
303374,534,"Orlando/Daytona/Melbourne, FL",DD,Open,"DJH Enterprises, Inc.",Port Orange,FL,Volusia,32119,USA,29.145053,-80.988058
303377,561,"Jacksonville, FL",BR/DD,Open,"AZORES DONUTS, INC.",Palatka,FL,PUTNAM,32177,USA,29.649295,-81.643392
303383,602,"Chicago, IL",BR/DD,Open,"Naaz Foods, Inc.",Chicago,IL,Cook,60660,USA,41.995781,-87.670425
303385,675,"Peoria/Bloomington, IL",DD,Open,"Peoria University Donuts, Inc.",Peoria,IL,Peoria,61604,USA,40.729685,-89.612218
303386,675,"Peoria/Bloomington, IL",DD,Open,"SAB DONUTS, INC.",Peoria,IL,PEORIA,61604,USA,40.695217,-89.623
303395,602,"Chicago, IL",BR/DD,Open,"Rozenan, Inc.",Elmhurst,IL,DuPage,60126,USA,41.928619,-87.939931
303396,602,"Chicago, IL",DD,Open,Shree Durga Inc.,Lombard,IL,DuPage,60148,USA,41.860767,-88.017569
303400,675,"Peoria/Bloomington, IL",BR/DD,Open,"Express Donuts, Inc.",Peoria,IL,PEORIA,61615,USA,40.743547,-89.631953
303408,602,"Chicago, IL",DD,Open,"SHAMSA, INC.",Elk Grove Village,IL,COOK,60007,USA,41.994064,-88.027914
303410,602,"Chicago, IL",DD,Open,Jay Shiv Krupa Inc.,Elgin,IL,Kane,60123,USA,42.059663,-88.315036
303414,602,"Chicago, IL",DD,Open,"Ottawa Donuts, Inc.",Ottawa,IL,LaSalle,61350,USA,41.370603,-88.836425
303416,602,"Chicago, IL",DD,Open,"Southland Donuts, Inc.",Calumet City,IL,Cook,60409,USA,41.620708,-87.559003
303433,500,"Portland, ME",DD,Open,"College Ave Donuts, LLC",Waterville,ME,Kennebec,4901,USA,44.556064,-69.629653
303435,512,"Baltimore, MD",BR/DD,Open,Ranip Corporation,Annapolis,MD,ANNE ARUNDEL,21401,USA,38.982319,-76.531403
303438,512,"Baltimore, MD",DD,Open,"AARK CAPITAL USA, LLC",Elkton,MD,Cecil,21921,USA,39.602316,-75.826872
303439,512,"Baltimore, MD",DD,Open,"SGS, LLC",Cockeysville,MD,BALTIMORE,21030,USA,39.463894,-76.635972
303440,512,"Baltimore, MD",DD,Open,"J & N DONUT, INC.",Parkville,MD,Baltimore,21234,USA,39.39825,-76.541415
303442,576,"Salisbury, MD",DD,Open,"Easton Donut Shop, Inc.",Cambridge,MD,Dorchester,21613,USA,38.566619,-76.065194
303444,511,"Washington, DC",BR/DD,Open,"Ashapura, Inc.",Suitland,MD,PRINCE GEORGES,20746,USA,38.82255,-76.884711
303446,512,"Baltimore, MD",BR/DD,Open,"Easton Donut Shop, Inc.",Easton,MD,TALBOT,21601,USA,38.78151,-76.059571
303451,506,"E. Mass/Southern, NH",DD,Open,"Glennco, Inc.",Brockton,MA,Plymouth,2301,USA,42.109084,-71.031324
303452,506,"E. Mass/Southern, NH",DD,Open,"Granite St. Donuts, Inc.",Braintree,MA,Norfolk,2184,USA,42.211722,-71.019908
303453,506,"E. Mass/Southern, NH",DD,Open,"Donovan Services, Inc.",Wellesley,MA,Norfolk,2482,USA,42.304669,-71.322958
303454,506,"E. Mass/Southern, NH",DD,Open,"Greenbridge Donuts, LLC",North Weymouth,MA,NORFOLK,2191,USA,42.244381,-70.939689
303455,506,"E. Mass/Southern, NH",DD,Open,"GREATER BOSTON DONUTS, LLC",Medford,MA,MIDDLESEX,2155,USA,42.406108,-71.082258
303457,506,"E. Mass/Southern, NH",DD,Open,"CDT Donuts, Inc.",Brookline,MA,Norfolk,2445,USA,42.330381,-71.124118
303458,506,"E. Mass/Southern, NH",DD,Open,"517 Fram Co., LLC",Framingham,MA,MIDDLESEX,1701,USA,42.29785,-71.417519
303461,506,"E. Mass/Southern, NH",DD,Permanent Close,"Blake & Trombley, Inc.",Gardner,MA,WORCESTER,1440,USA,42.565538,-71.978687
303462,506,"E. Mass/Southern, NH",DD,Open,"Donovan Services, Inc.",Quincy,MA,Norfolk,2169,USA,42.240417,-71.003483
303463,506,"E. Mass/Southern, NH",DD,Open,"MCK DONUTS, INC.",Winchester,MA,Middlesex,1890,USA,42.459225,-71.140003
303464,506,"E. Mass/Southern, NH",DD,Open,"Brockton Ave. Donuts, Inc.",Abington,MA,PLYMOUTH,2351,USA,42.103547,-70.955586
303465,506,"E. Mass/Southern, NH",DD,Open,GEN 2 LLC,Bridgewater,MA,Plymouth,2324,USA,41.994858,-70.973431
303466,506,"E. Mass/Southern, NH",DD,Open,"East Grove Street Donuts, Inc.",Middleboro,MA,PLYMOUTH,2346,USA,41.885812,-70.916756
303469,521,"Providence, RI",DD,Open,"C T Donuts, Inc.",New Bedford,MA,BRISTOL,2740,USA,41.634151,-70.927304
303474,521,"Providence, RI",DD,Open,"Vangeli77, LLC",Seekonk,MA,Bristol,2771,USA,41.809794,-71.337333
303479,506,"E. Mass/Southern, NH",DD,Temporary Close,"R.B.J. Donut Co., Inc.",Chelsea,MA,SUFFOLK,2150,USA,42.393583,-71.039
303480,521,"Providence, RI",DD,Open,"M. D. Of Fall River, Inc.",Fall River,MA,Bristol,2724,USA,41.682664,-71.163125
303482,521,"Providence, RI",DD,Open,"Chios Donuts, LLC",Taunton,MA,BRISTOL,2780,USA,41.885069,-71.066781
303485,506,"E. Mass/Southern, NH",DD,Open,Gildas L. Bettencourt,Dracut,MA,MIDDLESEX,1826,USA,42.682661,-71.309386
303486,521,"Providence, RI",DD,Open,"DomDom, LLC",Taunton,MA,Bristol,2780,USA,41.888514,-71.12205
303488,506,"E. Mass/Southern, NH",DD,Open,"Wareham Management Group, LLC",Wareham,MA,Plymouth,2571,USA,41.763317,-70.722017
303490,521,"Providence, RI",DD,Open,"DARTMOUTH MANAGEMENT GROUP, LLC",Fall River,MA,Bristol,2721,USA,41.697545,-71.144629
303533,506,"E. Mass/Southern, NH",DD,Open,"Mrk Donuts, Inc.",Nashua,NH,HILLSBOROUGH,3060,USA,42.753006,-71.461655
303535,506,"E. Mass/Southern, NH",DD,Open,"Bebe Donuts, Inc.",Milford,NH,Hillsborough,3055,USA,42.836997,-71.663039
303536,504,"Philadelphia, PA",DD,Open,"GNJ, Inc.",Cinnaminson,NJ,Burlington,8077,USA,39.997053,-74.991631
303543,555,"Syracuse, NY",DD,Open,BAPA E GENESEE DONUTS LLC,Auburn,NY,Cayuga,13021,USA,42.932984,-76.563505
303548,501,"Metro, NY",DD,Open,"Renttarb Donuts, Inc.",Yorktown Heights,NY,WESTCHESTER,10598,USA,41.273558,-73.782819
303550,555,"Syracuse, NY",DD,Open,"Liverpool Donuts, LLC",Liverpool,NY,ONONDAGA,13090,USA,43.139964,-76.2275
303553,502,"Binghamton, NY",DD,Open,Jankim Inc.,Owego,NY,Tioga,13827,USA,42.101938,-76.262388
303583,536,"Youngstown, OH",DD,Open,"Mar-Stew, Inc.",Salem,OH,Columbiana,44460,USA,40.90091,-80.868496
303589,577,"Wilkes Barre-Scranton, PA",DD,Open,"RCJFPA Management, Inc.",Williamsport,PA,Lycoming,17701,USA,41.248481,-76.963442
303596,508,"Pittsburgh, PA",BR/DD,Open,North Versailles Coffee Ltd Liability Company,North Versailles,PA,Allegheny,15137,USA,40.377569,-79.802234
303598,577,"Wilkes Barre-Scranton, PA",DD,Open,"RCJFPA Management, Inc.",Williamsport,PA,Lycoming,17701,USA,41.239625,-77.052416
303599,577,"Wilkes Barre-Scranton, PA",DD,Open,"Bowers Donuts, Inc.",Pottsville,PA,Schuylkill,17901,USA,40.673831,-76.235308
303602,577,"Wilkes Barre-Scranton, PA",DD,Open,GROVEBURG CORP.,Lewisburg,PA,UNION,17837,USA,40.969956,-76.8927
303606,504,"Philadelphia, PA",DD,Open,Om Donut Corporation,West Chester,PA,Chester,19382,USA,39.964064,-75.595111
303607,577,"Wilkes Barre-Scranton, PA",DD,Open,"Bowers Donuts, Inc.",Pottsville,PA,SCHUYLKILL,17901,USA,40.682075,-76.190589
303609,577,"Wilkes Barre-Scranton, PA",DD,Open,GROVEBURG CORP.,Hummels Wharf,PA,SNYDER,17831,USA,40.833078,-76.837881
303615,566,"Lancaster/Harrisburg/York, PA",DD,Open,"NEDO, INCORPORATED",Burnham,PA,Mifflin,17009,USA,40.625108,-77.563747
303623,577,"Wilkes Barre-Scranton, PA",DD,Open,GROVEBURG CORP.,Bloomsburg,PA,Columbia,17815,USA,41.003237,-76.441773
303628,577,"Wilkes Barre-Scranton, PA",DD,Open,"J & S Management, Inc.",Carbondale,PA,LACKAWANNA,18407,USA,41.570975,-75.503027
303633,565,"Elmira, NY",DD,Open,"M. N. & J., Inc.",Wellsboro,PA,TIOGA,16901,USA,41.750252,-77.298274
303640,504,"Philadelphia, PA",DD,Open,Shree Ganesha LLC,Easton,PA,NORTHAMPTON,18045,USA,40.678086,-75.259242
303641,577,"Wilkes Barre-Scranton, PA",DD,Open,"NEDO, INCORPORATED",Lock Haven,PA,CLINTON,17745,USA,41.134883,-77.452903
303644,502,"Binghamton, NY",DD,Open,"Riank, Inc.",Towanda,PA,Bradford,18848,USA,41.780915,-76.448357
303649,508,"Pittsburgh, PA",DD,Open,"BARU, INC.",Murrysville,PA,Westmoreland,15668,USA,40.42754,-79.69478
303650,577,"Wilkes Barre-Scranton, PA",DD,Open,"F & V, Inc.",Dickson City,PA,LACKAWANNA,18519,USA,41.469281,-75.610058
303668,577,"Wilkes Barre-Scranton, PA",DD,Open,"H. W. Roever, Inc.",Moosic,PA,LACKAWANNA,18507,USA,41.372431,-75.703086
303682,508,"Pittsburgh, PA",DD,Open,Donald A. & Annette L. Miller,New Castle,PA,Lawrence,16101,USA,41.002253,-80.344158
303683,504,"Philadelphia, PA",DD,Open,Yogi Donut Corporation,Pottstown,PA,MONTGOMERY,19464,USA,40.244031,-75.615928
303687,508,"Pittsburgh, PA",DD,Open,"HRG Belle Vernon, LLC",Belle Vernon,PA,Westmoreland,15012,USA,40.202717,-79.836383
303689,536,"Youngstown, OH",DD,Open,"Stew-Mar, Inc.",Hermitage,PA,MERCER,16148,USA,41.233411,-80.443431
303691,577,"Wilkes Barre-Scranton, PA",DD,Open,"B & B Donut Associates, Inc.",Shamokin,PA,Northumberland,17872,USA,40.791676,-76.559433
303692,577,"Wilkes Barre-Scranton, PA",DD,Open,"RCJFPA Management, Inc.",Danville,PA,Montour,17821,USA,40.961472,-76.608467
303704,521,"Providence, RI",DD,Open,"Willett Avenue Donuts, Inc.",Riverside,RI,PROVIDENCE,2915,USA,41.760319,-71.347467
303708,521,"Providence, RI",DD,Open,"AM Donuts, Inc.",Pawtucket,RI,PROVIDENCE,2860,USA,41.881217,-71.390444
303709,521,"Providence, RI",DD,Open,"416 Metacom Bakers, Inc.",Bristol,RI,Bristol,2809,USA,41.681569,-71.260639
303712,521,"Providence, RI",DD,Open,"G. & F. Donuts, Inc.",Warwick,RI,KENT,2888,USA,41.752314,-71.415961
303714,521,"Providence, RI",DD,Open,"Portsmouth Donuts, Inc.",Portsmouth,RI,Newport,2871,USA,41.61025,-71.245725
303716,546,"Columbia, SC",DD,Open,"Gallion Group, Inc.",Columbia,SC,RICHLAND,29206,USA,34.019142,-80.967878
303718,546,"Columbia, SC",DD,Open,"Gallion Group, Inc.",Columbia,SC,RICHLAND,29223,USA,34.097167,-80.921747
303739,511,"Washington, DC",DD,Open,"JBAR, Inc.",Alexandria,VA,Alexandria,22314,USA,38.807442,-77.082561
303740,511,"Washington, DC",BR/DD,Open,Shrikrishna Corporation,Stafford,VA,STAFFORD,22554,USA,38.474494,-77.420172
303851,533,"Hartford-New Haven, CT",DD,Open,"Elm Donuts, Inc.",West Haven,CT,NEW HAVEN,6516,USA,41.275914,-72.952606
303857,506,"E. Mass/Southern, NH",DD,Open,"Salvis Donuts, LLC",Revere,MA,Suffolk,2151,USA,42.421847,-71.005414
303884,504,"Philadelphia, PA",DD,Open,"Quadruple S, Inc.",Levittown,PA,BUCKS,19057,USA,40.141244,-74.817564
303892,501,"Metro, NY",DD,Open,"D & S Systems, Inc.",Mineola,NY,Nassau,11501,USA,40.74966,-73.64026
303903,511,"Washington, DC",DD,Open,PPH Corporation,Lanham,MD,Prince Georges,20706,USA,38.953803,-76.876167
303921,528,"Miami-FT. Lauderdale, FL",DD,Open,"PEANUT DONUTS, LLC",Wilton Manors,FL,BROWARD,33311,USA,26.166263,-80.146896
303931,528,"Miami-FT. Lauderdale, FL",DD,Open,"Allied Chase Retail, Inc.",Davie,FL,Broward,33325,USA,26.116139,-80.323977
303971,521,"Providence, RI",DD,Open,"Artemida, LLC",Tiverton,RI,Newport,2878,USA,41.659611,-71.19025
304009,505,"Detroit, MI",BR/DD,Open,OM NOVI DONUTS INC,Novi,MI,Oakland,48375,USA,42.467556,-83.435331
